City,Country,Date,Cloudiness (%),Humidity (%),Latitude (Deg),Longitude (Deg),Max Temperature (F),Wind Speed (mph),Converted Date
mataura,NZ,1581994162,99,80,-46.19,168.86,66.0,5.01,2020-02-18
port macquarie,AU,1581993990,40,70,-31.43,152.92,89.01,8.05,2020-02-18
yellowknife,CA,1581994163,5,74,62.46,-114.35,-22.0,5.82,2020-02-18
port hardy,CA,1581994163,20,100,50.7,-127.42,35.6,4.7,2020-02-18
akureyri,IS,1581994164,90,97,65.68,-18.09,32.0,9.17,2020-02-18
flinders,AU,1581994164,40,62,-34.58,150.86,97.0,12.75,2020-02-18
hilo,US,1581994164,90,61,19.73,-155.09,78.8,12.75,2020-02-18
saint-philippe,RE,1581994165,75,83,-21.36,55.77,77.0,16.11,2020-02-18
lata,PT,1581994165,0,87,40.16,-8.33,52.0,4.7,2020-02-18
maceio,BR,1581993877,20,83,-9.67,-35.74,78.8,6.93,2020-02-18
butaritari,KI,1581994166,9,81,3.07,172.79,83.8,11.77,2020-02-18
ushuaia,AR,1581994166,75,66,-54.8,-68.3,48.2,14.99,2020-02-18
mazagao,BR,1581994167,40,94,-0.12,-51.29,80.6,8.05,2020-02-18
kodiak,US,1581994167,75,86,57.79,-152.41,39.2,11.41,2020-02-18
tuatapere,NZ,1581994167,100,80,-46.13,167.68,66.0,5.01,2020-02-18
lorengau,PG,1581994168,95,80,-2.02,147.27,83.46,14.45,2020-02-18
hithadhoo,MV,1581994168,58,71,-0.6,73.08,83.86,7.54,2020-02-18
thompson,CA,1581994168,5,69,55.74,-97.86,-11.2,9.17,2020-02-18
seoul,KR,1581994169,1,38,37.57,126.98,28.4,1.12,2020-02-18
ribeira grande,PT,1581994169,69,73,38.52,-28.7,52.45,7.67,2020-02-18
tura,IN,1581994169,0,51,25.52,90.22,73.76,2.89,2020-02-18
melfi,IT,1581994170,75,86,41.0,15.65,37.4,24.16,2020-02-18
pascagoula,US,1581994170,90,100,30.37,-88.56,64.4,10.29,2020-02-18
rikitea,PF,1581994171,100,77,-23.12,-134.97,79.43,13.87,2020-02-18
vaini,TO,1581994171,20,65,-21.2,-175.2,82.4,14.99,2020-02-18
punta arenas,CL,1581994171,100,57,-53.15,-70.92,51.8,18.34,2020-02-18
bredasdorp,ZA,1581994172,5,87,-34.53,20.04,64.0,3.36,2020-02-18
hobart,AU,1581994051,75,45,-42.88,147.33,71.01,12.75,2020-02-18
severo-kurilsk,RU,1581994174,100,74,50.68,156.12,17.91,5.1,2020-02-18
palmer,US,1581994151,40,68,42.16,-72.33,30.99,2.53,2020-02-18
los chiles,CR,1581994174,0,89,11.03,-84.72,74.03,4.34,2020-02-18
usvyaty,RU,1581994175,96,87,55.75,30.75,36.88,8.72,2020-02-18
pangnirtung,CA,1581994175,100,99,66.15,-65.71,-26.14,2.1,2020-02-18
san cristobal,VE,1581994175,20,62,7.77,-72.22,84.2,2.24,2020-02-18
tautira,PF,1581994176,20,66,-17.73,-149.15,87.8,8.05,2020-02-18
albany,US,1581993984,20,63,42.6,-73.97,27.0,4.7,2020-02-18
barrow,US,1581994176,1,73,71.29,-156.79,-36.4,5.82,2020-02-18
bridlington,GB,1581994177,33,71,54.08,-0.19,42.01,18.34,2020-02-18
cabo san lucas,MX,1581994120,40,31,22.89,-109.91,75.2,2.24,2020-02-18
san vicente,AR,1581994177,35,89,-26.62,-54.13,72.9,3.94,2020-02-18
busselton,AU,1581994178,100,23,-33.65,115.33,81.0,11.27,2020-02-18
shimoda,JP,1581994178,20,27,34.67,138.95,54.0,17.22,2020-02-18
hermanus,ZA,1581994179,66,89,-34.42,19.23,64.99,5.01,2020-02-18
wageningen,NL,1581994179,75,93,51.97,5.67,46.0,14.99,2020-02-18
puerto ayora,EC,1581993991,11,82,-0.74,-90.35,78.19,5.55,2020-02-18
chapais,CA,1581994180,1,70,49.78,-74.85,-5.8,3.36,2020-02-18
kapaa,US,1581994180,20,69,22.08,-159.32,77.0,18.34,2020-02-18
port elizabeth,ZA,1581994181,90,88,-33.92,25.57,66.2,8.05,2020-02-18
aswan,EG,1581994181,45,63,24.09,32.91,53.1,6.55,2020-02-18
pacific grove,US,1581994182,1,58,36.62,-121.92,57.99,5.82,2020-02-18
pachora,IN,1581994182,0,18,20.67,75.35,74.3,3.18,2020-02-18
castro,BR,1581994182,99,83,-24.79,-50.01,67.21,3.83,2020-02-18
tilichiki,RU,1581994183,81,85,60.47,166.1,-6.66,8.57,2020-02-18
aden,YE,1581994176,0,72,12.78,45.04,72.9,13.13,2020-02-18
pangody,RU,1581994183,100,85,65.85,74.49,15.76,28.59,2020-02-18
agadir,MA,1581993988,0,93,30.42,-9.6,53.6,5.82,2020-02-18
guerrero negro,MX,1581994031,100,84,27.98,-114.06,59.77,9.28,2020-02-18
sangar,RU,1581994184,92,95,63.92,127.47,-10.23,1.68,2020-02-18
yerbogachen,RU,1581994185,22,91,61.28,108.01,-2.74,3.96,2020-02-18
walvis bay,NA,1581994185,62,88,-22.96,14.51,62.6,10.71,2020-02-18
nikolskoye,RU,1581994186,90,80,59.7,30.79,41.0,11.18,2020-02-18
vestmannaeyjar,IS,1581994186,100,61,63.44,-20.27,37.54,5.46,2020-02-18
bambous virieux,MU,1581994186,75,83,-20.34,57.76,77.0,4.7,2020-02-18
esperance,AU,1581994187,25,40,-33.87,121.9,69.8,12.75,2020-02-18
conde,BR,1581994187,20,83,-7.26,-34.91,80.6,8.05,2020-02-18
codrington,AU,1581994187,74,77,-38.27,141.97,65.25,22.1,2020-02-18
jamestown,US,1581993993,90,51,42.1,-79.24,37.0,4.7,2020-02-18
skibbereen,IE,1581994188,40,93,51.55,-9.27,37.4,12.75,2020-02-18
new norfolk,AU,1581994188,75,45,-42.78,147.06,71.01,12.75,2020-02-18
olga,RU,1581994189,30,65,43.74,135.29,23.9,18.12,2020-02-18
kalmunai,LK,1581994189,11,65,7.42,81.82,79.05,12.5,2020-02-18
lebu,CL,1581994189,0,77,-37.62,-73.65,53.08,7.27,2020-02-18
syamzha,RU,1581994190,90,90,60.02,41.06,34.7,13.13,2020-02-18
grindavik,IS,1581994190,75,74,63.84,-22.43,33.8,12.75,2020-02-18
tocopilla,CL,1581994191,0,53,-22.09,-70.2,64.22,2.48,2020-02-18
bay roberts,CA,1581994191,90,100,47.6,-53.26,30.99,8.05,2020-02-18
pisco,PE,1581994191,75,88,-13.7,-76.22,73.4,16.11,2020-02-18
sao felix do xingu,BR,1581994192,74,96,-6.64,-51.99,72.14,0.76,2020-02-18
qaanaaq,GL,1581994192,60,63,77.48,-69.36,-9.2,6.17,2020-02-18
lavrentiya,RU,1581994193,100,59,65.58,-171.0,0.54,19.62,2020-02-18
cherskiy,RU,1581994193,95,94,68.75,161.3,-15.88,3.91,2020-02-18
inhambane,MZ,1581994193,91,74,-23.86,35.38,80.58,8.03,2020-02-18
aberystwyth,GB,1581994194,43,93,52.42,-4.08,41.0,3.0,2020-02-18
coihaique,CL,1581994194,90,58,-45.58,-72.07,53.6,16.11,2020-02-18
grand gaube,MU,1581994195,75,83,-20.01,57.66,77.0,4.7,2020-02-18
port alfred,ZA,1581994195,100,94,-33.59,26.89,66.99,16.24,2020-02-18
shakawe,BW,1581994195,48,77,-18.37,21.85,68.83,2.66,2020-02-18
tuktoyaktuk,CA,1581994196,20,74,69.45,-133.04,-25.6,8.05,2020-02-18
oriximina,BR,1581994196,29,80,-1.77,-55.87,78.31,3.83,2020-02-18
cururupu,BR,1581994197,100,98,-1.83,-44.87,74.34,1.32,2020-02-18
aklavik,CA,1581994197,20,68,68.22,-135.01,-20.2,4.7,2020-02-18
luanda,AO,1581994197,75,94,-8.84,13.23,78.8,2.24,2020-02-18
port augusta,AU,1581994198,40,49,-32.5,137.77,73.4,25.28,2020-02-18
vuktyl,RU,1581994198,99,97,63.86,57.31,32.61,17.07,2020-02-18
ust-maya,RU,1581994199,100,92,60.42,134.53,-0.31,0.83,2020-02-18
dikson,RU,1581994200,100,87,73.51,80.55,7.63,31.99,2020-02-18
bethel,US,1581994200,1,51,41.37,-73.41,39.99,6.93,2020-02-18
glushkovo,RU,1581994200,100,83,51.34,34.63,34.23,10.56,2020-02-18
abbeville,FR,1581994201,3,93,50.1,1.83,42.01,14.99,2020-02-18
carutapera,BR,1581994201,71,82,-1.2,-46.02,81.32,16.69,2020-02-18
ahipara,NZ,1581994201,12,66,-35.17,173.17,84.99,5.08,2020-02-18
khatanga,RU,1581994202,64,87,71.97,102.5,-3.19,9.04,2020-02-18
zyryanka,RU,1581994202,86,93,65.75,150.85,-9.33,3.33,2020-02-18
huarmey,PE,1581994203,97,77,-10.07,-78.15,71.33,4.16,2020-02-18
carnarvon,AU,1581994203,97,74,-24.87,113.63,84.2,8.05,2020-02-18
chirongui,YT,1581994204,100,94,-12.93,45.15,80.6,0.83,2020-02-18
rafai,CF,1581994204,100,67,4.95,23.92,74.3,3.62,2020-02-18
arman,RU,1581994204,0,69,59.7,150.17,3.45,3.24,2020-02-18
bluff,NZ,1581994205,79,80,-46.6,168.33,66.0,5.01,2020-02-18
qasigiannguit,GL,1581994205,99,65,68.82,-51.19,8.6,5.82,2020-02-18
margate,GB,1581994206,0,80,51.38,1.39,43.0,16.11,2020-02-18
mogadishu,SO,1581994118,81,80,2.04,45.34,80.31,18.61,2020-02-18
bacungan,PH,1581994206,20,58,9.91,118.7,87.8,16.11,2020-02-18
velika kladusa,BA,1581994207,62,76,45.19,15.81,53.01,8.05,2020-02-18
lazaro cardenas,MX,1581994207,0,80,17.96,-102.2,74.34,1.43,2020-02-18
saint-augustin,CA,1581994207,88,79,51.23,-58.65,2.68,15.12,2020-02-18
barvinkove,UA,1581994208,95,88,48.91,37.02,28.72,10.71,2020-02-18
tiksi,RU,1581994208,100,89,71.69,128.87,-9.8,7.18,2020-02-18
evensk,RU,1581994209,0,76,61.95,159.23,-1.25,4.85,2020-02-18
ponta do sol,PT,1581994209,40,77,32.67,-17.1,64.4,17.22,2020-02-18
honningsvag,NO,1581994210,98,77,70.98,25.97,34.54,28.61,2020-02-18
catamarca,AR,1581994210,15,75,-28.47,-65.79,66.99,1.99,2020-02-18
chichli,IN,1581994211,0,17,22.83,78.82,67.1,0.11,2020-02-18
avarua,CK,1581994211,100,78,-21.21,-159.78,80.6,12.75,2020-02-18
olustvere,EE,1581994212,100,89,58.56,25.56,41.0,11.01,2020-02-18
tahta,EG,1581994212,0,71,26.77,31.5,53.6,4.7,2020-02-18
ambilobe,MG,1581994212,100,92,-13.2,49.05,75.92,3.04,2020-02-18
norman wells,CA,1581994213,20,74,65.28,-126.83,-23.8,7.56,2020-02-18
deputatskiy,RU,1581994213,88,95,69.3,139.9,-4.77,1.92,2020-02-18
maragogi,BR,1581994214,5,76,-9.01,-35.22,82.4,12.06,2020-02-18
cape town,ZA,1581994022,0,77,-33.93,18.42,66.0,8.05,2020-02-18
aliwal north,ZA,1581994214,99,77,-30.69,26.71,64.0,16.93,2020-02-18
ostrovnoy,RU,1581994215,91,81,68.05,39.51,27.91,29.46,2020-02-18
lubango,AO,1581994215,100,90,-14.92,13.49,60.89,3.42,2020-02-18
bani,DO,1581994215,23,80,18.28,-70.33,75.99,3.0,2020-02-18
bikin,RU,1581994216,100,87,46.82,134.26,10.69,5.08,2020-02-18
east london,ZA,1581994216,100,73,-33.02,27.91,71.82,12.24,2020-02-18
chokurdakh,RU,1581994217,96,97,70.63,147.92,-2.99,4.38,2020-02-18
atambua,ID,1581994145,6,69,-9.11,124.89,83.86,5.12,2020-02-18
siimusti,EE,1581994217,90,86,58.73,26.34,41.0,19.46,2020-02-18
qaqortoq,GL,1581994218,85,51,60.72,-46.03,10.4,4.7,2020-02-18
kirakira,SB,1581994218,100,81,-10.45,161.92,83.21,6.31,2020-02-18
pevek,RU,1581994218,100,97,69.7,170.31,-13.74,3.13,2020-02-18
faya,SA,1581994219,0,47,18.39,42.45,57.2,3.13,2020-02-18
batagay-alyta,RU,1581994219,100,94,67.8,130.41,1.85,0.96,2020-02-18
apac,UG,1581994220,44,64,1.98,32.54,72.16,3.42,2020-02-18
sisimiut,GL,1581994220,97,83,66.94,-53.67,0.37,9.55,2020-02-18
nakamura,JP,1581994220,84,61,32.98,132.93,42.53,9.17,2020-02-18
constitucion,CL,1581994221,0,65,-35.33,-72.42,56.48,8.41,2020-02-18
san,ML,1581994219,0,10,13.3,-4.9,73.11,8.52,2020-02-18
zaysan,KZ,1581994221,100,90,47.47,84.87,14.0,2.44,2020-02-18
atuona,PF,1581994222,81,74,-9.8,-139.03,81.41,19.6,2020-02-18
san francisco,US,1581993956,75,38,37.77,-122.42,64.4,14.99,2020-02-18
vila franca do campo,PT,1581994071,75,71,37.72,-25.43,51.8,4.7,2020-02-18
richards bay,ZA,1581993964,65,80,-28.78,32.04,79.57,21.47,2020-02-18
clyde river,CA,1581994223,75,74,70.47,-68.59,-25.6,3.36,2020-02-18
portland,US,1581994184,40,65,45.52,-122.68,45.0,5.82,2020-02-18
tual,ID,1581994224,18,75,-5.67,132.75,84.07,14.16,2020-02-18
port lincoln,AU,1581994041,8,54,-34.73,135.87,66.63,22.26,2020-02-18
general roca,AR,1581994226,0,32,-39.03,-67.58,68.0,11.41,2020-02-18
xichang,CN,1581994226,95,55,27.9,102.26,48.0,4.09,2020-02-18
araouane,ML,1581994226,89,13,18.9,-3.53,71.02,8.84,2020-02-18
sorland,NO,1581994227,99,93,67.67,12.69,39.63,13.69,2020-02-18
qui nhon,VN,1581994063,95,82,13.77,109.23,73.06,12.46,2020-02-18
banda aceh,ID,1581994227,82,70,5.56,95.32,82.67,6.2,2020-02-18
saskylakh,RU,1581994228,100,92,71.92,114.08,4.53,8.05,2020-02-18
korla,CN,1581994228,20,88,41.76,86.15,35.01,3.09,2020-02-18
rio grande,BR,1581993938,89,86,-32.03,-52.1,77.59,16.55,2020-02-18
ulaangom,MN,1581994229,100,97,49.98,92.07,-10.28,0.63,2020-02-18
vao,NC,1581994229,77,80,-22.67,167.48,79.23,19.13,2020-02-18
farsund,NO,1581994229,0,81,58.09,6.8,44.01,20.0,2020-02-18
iranduba,BR,1581994230,37,88,-3.28,-60.19,80.6,3.36,2020-02-18
belmonte,BR,1581994230,40,78,-15.86,-38.88,80.6,10.29,2020-02-18
victoria,HK,1581994207,0,35,22.29,114.16,62.01,6.93,2020-02-18
morehead,US,1581994231,90,71,37.27,-87.18,57.99,10.29,2020-02-18
isla mujeres,MX,1581994231,5,83,21.23,-86.73,75.2,5.82,2020-02-18
shetpe,KZ,1581994232,0,66,44.17,52.12,32.29,11.61,2020-02-18
kaseda,JP,1581994232,75,72,31.42,130.32,35.6,9.17,2020-02-18
boa vista,BR,1581994233,59,55,2.82,-60.67,86.0,14.99,2020-02-18
husavik,IS,1581994233,90,96,66.04,-17.34,32.0,9.17,2020-02-18
sao filipe,CV,1581994233,66,62,14.9,-24.5,73.27,19.39,2020-02-18
dharmadam,IN,1581994234,20,83,11.78,75.43,73.4,6.93,2020-02-18
cayenne,GF,1581993955,90,78,4.93,-52.33,80.6,11.41,2020-02-18
tadine,NC,1581994234,31,75,-21.55,167.88,81.32,16.4,2020-02-18
upernavik,GL,1581994235,100,90,72.79,-56.15,1.69,1.3,2020-02-18
mar del plata,AR,1581994235,40,100,-38.0,-57.56,69.01,6.93,2020-02-18
hoi an,VN,1581994235,75,82,15.88,108.33,68.0,4.7,2020-02-18
westport,US,1581994236,1,51,41.14,-73.36,39.99,9.17,2020-02-18
nosy varika,MG,1581994236,93,90,-20.58,48.53,75.11,2.71,2020-02-18
dunedin,NZ,1581994237,78,73,-45.87,170.5,66.0,2.66,2020-02-18
nikolayevsk-na-amure,RU,1581994237,54,86,53.14,140.73,4.21,4.32,2020-02-18
mount gambier,AU,1581994238,75,77,-37.83,140.77,66.2,24.16,2020-02-18
salinas,US,1581994121,1,58,36.68,-121.66,59.0,5.82,2020-02-18
egvekinot,RU,1581994238,94,95,66.32,-179.17,-17.86,15.97,2020-02-18
souillac,MU,1581994239,75,83,-20.52,57.52,77.0,4.7,2020-02-18
turukhansk,RU,1581994239,100,93,65.82,87.98,16.12,12.15,2020-02-18
nassau,US,1581994239,1,52,40.75,-73.58,43.0,8.1,2020-02-18
hovd,MN,1581994240,100,60,48.01,91.64,4.08,2.37,2020-02-18
puerto ayacucho,VE,1581994240,55,72,5.66,-67.62,78.73,2.71,2020-02-18
veliki preslav,BG,1581994240,0,85,43.17,26.82,35.71,4.41,2020-02-18
kruisfontein,ZA,1581994241,7,94,-34.0,24.73,63.25,8.88,2020-02-18
college,US,1581994241,90,77,64.86,-147.8,12.2,3.91,2020-02-18
tasiilaq,GL,1581994241,100,68,65.61,-37.64,28.4,26.4,2020-02-18
bitung,ID,1581994242,40,66,1.45,125.18,87.8,5.82,2020-02-18
fortuna,US,1581994242,1,87,40.6,-124.16,50.0,9.17,2020-02-18
arraial do cabo,BR,1581994207,65,83,-22.97,-42.03,78.8,18.34,2020-02-18
kungurtug,RU,1581994243,48,68,50.6,97.52,7.18,1.05,2020-02-18
rabaul,PG,1581994243,100,75,-4.2,152.17,84.31,20.89,2020-02-18
bagli,IN,1581994244,0,71,22.65,76.35,55.4,2.24,2020-02-18
garmsar,IR,1581994244,0,67,35.22,52.34,42.85,6.31,2020-02-18
eyl,SO,1581994244,51,74,7.98,49.82,77.9,14.83,2020-02-18
aligudarz,IR,1581994245,50,88,33.4,49.69,33.33,3.76,2020-02-18
tortoli,IT,1581994245,5,93,39.93,9.66,53.6,17.22,2020-02-18
williston,US,1581994007,90,79,48.15,-103.62,23.0,5.82,2020-02-18
mbanza-ngungu,CD,1581994246,86,97,-5.25,14.87,67.32,0.43,2020-02-18
vila velha,BR,1581993989,75,88,-20.33,-40.29,78.8,5.82,2020-02-18
sfantu gheorghe,RO,1581994247,80,89,45.87,25.78,41.0,1.32,2020-02-18
taksimo,RU,1581994247,95,74,56.34,114.88,10.62,3.51,2020-02-18
georgetown,MY,1581994221,20,74,5.41,100.34,82.4,3.36,2020-02-18
coquimbo,CL,1581994248,0,87,-29.95,-71.34,60.8,5.82,2020-02-18
ayagoz,KZ,1581994248,100,95,47.97,80.44,16.25,1.79,2020-02-18
marion,US,1581994180,90,100,39.77,-86.16,48.99,9.17,2020-02-18
pineville,US,1581994249,90,93,31.32,-92.43,66.2,5.82,2020-02-18
saint-francois,FR,1581994249,0,75,46.42,3.91,42.01,3.36,2020-02-18
shasta lake,US,1581994249,1,55,40.68,-122.37,59.0,5.82,2020-02-18
mtimbira,TZ,1581994250,68,98,-8.78,36.35,68.74,1.77,2020-02-18
putai,FR,1581994250,0,93,46.66,1.99,39.2,9.17,2020-02-18
west bay,KY,1581994250,20,88,19.37,-81.42,79.0,6.93,2020-02-18
hami,CN,1581994251,0,38,42.8,93.45,22.77,0.6,2020-02-18
mahebourg,MU,1581994251,75,83,-20.41,57.7,77.0,4.7,2020-02-18
mareeba,AU,1581994252,40,62,-17.0,145.43,93.0,10.29,2020-02-18
svetlaya,RU,1581994252,100,79,46.54,138.33,20.57,17.34,2020-02-18
jibuti,DJ,1581994253,37,77,11.5,42.5,71.98,13.11,2020-02-18
puerto leguizamo,CO,1581994253,47,94,-0.19,-74.78,73.62,1.81,2020-02-18
torbay,CA,1581994253,90,100,47.67,-52.73,30.99,8.05,2020-02-18
nouadhibou,MR,1581994254,73,49,20.93,-17.03,71.6,5.82,2020-02-18
asaba,NG,1581994254,17,96,6.2,6.73,74.17,2.46,2020-02-18
bonfim,BR,1581994254,37,53,3.08,-59.95,83.93,10.74,2020-02-18
geraldton,AU,1581994255,100,28,-28.77,114.6,93.2,23.04,2020-02-18
iqaluit,CA,1581994193,20,66,63.75,-68.51,-29.0,4.7,2020-02-18
carberry,CA,1581994256,20,70,49.87,-99.36,-2.2,10.29,2020-02-18
nabire,ID,1581994256,86,57,-3.37,135.48,89.53,4.23,2020-02-18
hambantota,LK,1581994256,0,94,6.12,81.12,73.4,4.7,2020-02-18
bestobe,KZ,1581994257,53,92,52.5,73.1,7.45,11.68,2020-02-18
barra dos coqueiros,BR,1581994258,40,70,-10.91,-37.04,84.2,16.11,2020-02-18
iiyama,JP,1581994239,100,64,36.85,138.37,39.0,1.99,2020-02-18
bar harbor,US,1581994258,1,45,44.39,-68.2,24.01,6.93,2020-02-18
khash,IR,1581994259,100,34,28.22,61.22,52.02,3.27,2020-02-18
jiuquan,CN,1581994259,0,29,39.74,98.52,22.71,2.13,2020-02-18
bela,IN,1581994260,0,50,25.93,81.98,61.16,5.12,2020-02-18
buraydah,SA,1581994096,100,67,26.33,43.98,59.0,13.87,2020-02-18
ketchikan,US,1581994261,90,86,55.34,-131.65,41.0,11.41,2020-02-18
narasannapeta,IN,1581994261,0,65,18.42,84.05,77.9,3.51,2020-02-18
port-gentil,GA,1581993993,100,80,-0.72,8.78,82.04,11.03,2020-02-18
olafsvik,IS,1581994262,100,81,64.89,-23.71,33.06,18.57,2020-02-18
nome,US,1581994262,90,78,64.5,-165.41,17.6,16.11,2020-02-18
sadovo,BG,1581994262,0,86,42.13,24.93,33.8,0.81,2020-02-18
glasgow,GB,1581994263,60,93,55.87,-4.26,39.0,19.46,2020-02-18
yar-sale,RU,1581994263,100,93,66.83,70.83,13.59,26.17,2020-02-18
sechura,PE,1581994264,33,87,-5.56,-80.82,73.56,9.37,2020-02-18
karratha,AU,1581994264,0,76,-20.74,116.85,83.75,12.82,2020-02-18
tomatlan,MX,1581994264,2,77,19.93,-105.25,68.41,1.03,2020-02-18
chernyshevskiy,RU,1581994265,0,94,63.01,112.47,-6.43,2.77,2020-02-18
taunggyi,MM,1581994265,0,26,20.78,97.03,74.52,5.08,2020-02-18
broome,US,1581994266,1,73,42.25,-75.83,28.99,3.36,2020-02-18
pachperwa,IN,1581994266,0,56,27.52,82.65,61.2,5.53,2020-02-18
kalaleh,IR,1581994266,90,81,37.38,55.49,42.8,2.04,2020-02-18
puri,IN,1581994267,20,93,19.8,85.85,66.2,5.88,2020-02-18
alamos,MX,1581994267,94,65,27.02,-108.93,66.99,1.99,2020-02-18
smithers,CA,1581994267,20,79,54.78,-127.17,28.4,3.36,2020-02-18
sur,OM,1581994268,100,50,22.57,59.53,65.28,4.92,2020-02-18
caibarien,CU,1581994269,20,88,22.52,-79.47,71.6,8.05,2020-02-18
altamira,BR,1581994269,95,96,-3.2,-52.21,74.5,2.33,2020-02-18
lichuan,CN,1581994270,22,74,30.3,108.85,42.35,2.66,2020-02-18
sao joao da barra,BR,1581994270,30,86,-21.64,-41.05,78.4,18.23,2020-02-18
jalu,LY,1581994271,4,66,29.03,21.55,51.96,11.48,2020-02-18
vung tau,VN,1581994116,0,50,10.35,107.08,85.62,11.54,2020-02-18
asyut,EG,1581994271,0,87,27.18,31.18,48.2,9.17,2020-02-18
yulara,AU,1581994272,0,26,-25.24,130.99,91.4,14.99,2020-02-18
tiznit,MA,1581994272,0,33,29.58,-9.5,58.87,1.28,2020-02-18
sembe,CG,1581994273,81,85,1.65,14.58,71.19,4.94,2020-02-18
tiarei,PF,1581994273,20,66,-17.53,-149.33,87.8,8.05,2020-02-18
sindor,RU,1581994273,100,93,62.86,51.89,33.44,14.41,2020-02-18
innisfail,AU,1581994200,0,51,-17.53,146.03,90.0,1.01,2020-02-18
port blair,IN,1581994274,45,66,11.67,92.75,79.02,11.21,2020-02-18
chokwe,MZ,1581994274,0,95,-24.53,32.98,73.83,4.99,2020-02-18
massaguet,TD,1581994275,0,21,12.48,15.44,71.6,8.05,2020-02-18
avera,US,1581994275,90,93,33.19,-82.53,59.0,4.7,2020-02-18
coahuayana,MX,1581994275,20,88,18.73,-103.68,69.8,3.71,2020-02-18
dombarovskiy,RU,1581994276,98,92,50.76,59.54,16.74,14.38,2020-02-18
kahului,US,1581994258,20,69,20.89,-156.47,75.2,17.22,2020-02-18
tukrah,LY,1581994277,73,63,32.53,20.58,54.81,9.24,2020-02-18
shaunavon,CA,1581994277,100,96,49.65,-108.42,0.39,13.51,2020-02-18
hamilton,US,1581994013,40,70,39.18,-84.53,50.0,9.01,2020-02-18
cidreira,BR,1581994278,77,89,-30.18,-50.21,77.2,19.98,2020-02-18
beringovskiy,RU,1581994278,95,88,63.05,179.32,-7.22,24.38,2020-02-18
acapulco,MX,1581994278,20,83,16.86,-99.89,80.6,4.7,2020-02-18
itacoatiara,BR,1581994279,23,93,-3.14,-58.44,75.51,1.61,2020-02-18
ligayan,PH,1581994280,99,76,4.65,119.47,81.99,12.53,2020-02-18
waipawa,NZ,1581994280,100,93,-41.41,175.52,69.01,20.8,2020-02-18
santa ana,US,1581994280,97,67,33.75,-117.87,63.0,9.17,2020-02-18
penzance,GB,1581994242,42,75,50.12,-5.54,46.0,21.92,2020-02-18
lethem,GY,1581994282,0,54,3.38,-59.8,84.11,11.01,2020-02-18
goma,CD,1581994282,4,96,-1.68,29.22,55.4,1.61,2020-02-18
meulaboh,ID,1581994282,98,77,4.14,96.13,79.7,9.17,2020-02-18
gao,ML,1581994283,2,20,16.64,1.64,69.39,13.82,2020-02-18
hervey bay,AU,1581994283,90,88,-25.3,152.85,91.0,6.93,2020-02-18
lasa,IT,1581994284,40,96,46.62,10.7,41.0,8.05,2020-02-18
kathu,TH,1581994284,40,74,7.92,98.33,82.4,5.82,2020-02-18
yaviza,PA,1581994284,33,92,8.15,-77.69,73.51,3.69,2020-02-18
pontianak,ID,1581994285,85,58,-0.03,109.33,86.83,3.42,2020-02-18
shelburne,CA,1581994285,75,68,44.08,-80.2,28.99,6.93,2020-02-18
quang ngai,VN,1581994128,100,83,15.12,108.8,72.55,15.88,2020-02-18
kaitangata,NZ,1581994286,61,92,-46.28,169.85,66.0,7.0,2020-02-18
adre,TD,1581994287,0,27,13.47,22.2,63.72,14.88,2020-02-18
gat,IL,1581994287,40,93,31.61,34.76,53.01,2.24,2020-02-18
daru,PG,1581994287,27,56,-9.08,143.21,91.67,6.11,2020-02-18
filadelfia,US,1581994288,1,86,39.95,-75.16,42.01,3.58,2020-02-18
orissaare,EE,1581994288,75,81,58.56,23.08,42.8,20.8,2020-02-18
preobrazheniye,RU,1581994289,37,62,42.9,133.91,24.94,4.74,2020-02-18
zolotkovo,RU,1581994289,100,95,55.53,41.11,34.92,10.6,2020-02-18
batagay,RU,1581994289,100,94,67.63,134.63,-3.57,0.74,2020-02-18
salalah,OM,1581994290,20,68,17.02,54.09,69.8,4.7,2020-02-18
humaita,BR,1581994265,34,87,-7.51,-63.02,76.93,1.7,2020-02-18
benghazi,LY,1581994291,34,62,32.12,20.07,55.67,7.52,2020-02-18
marrakesh,MA,1581994234,0,58,31.63,-8.01,55.4,2.24,2020-02-18
mahon,ES,1581994291,33,76,39.89,4.27,53.6,19.46,2020-02-18
alice springs,AU,1581994292,0,14,-23.7,133.88,96.8,18.34,2020-02-18
augusto correa,BR,1581994292,100,94,-1.02,-46.63,76.69,6.26,2020-02-18
careiro da varzea,BR,1581994265,87,88,-3.2,-59.81,80.6,3.36,2020-02-18
zhigansk,RU,1581994293,79,93,66.77,123.37,-14.6,3.87,2020-02-18
anadyr,RU,1581994293,20,75,64.75,177.48,-14.01,13.42,2020-02-18
nishihara,JP,1581994293,75,54,26.18,127.76,57.2,18.34,2020-02-18
rundu,NA,1581994294,27,73,-17.93,19.77,71.6,1.12,2020-02-18
launceston,AU,1581994294,75,35,-41.45,147.17,72.0,6.93,2020-02-18
diffa,NE,1581994294,67,31,13.32,12.61,65.25,9.35,2020-02-18
mana,GF,1581994295,37,88,5.66,-53.78,74.44,3.65,2020-02-18
saint pete beach,US,1581994295,1,88,27.73,-82.74,72.0,4.16,2020-02-18
narsaq,GL,1581994296,99,51,60.92,-46.05,10.4,4.7,2020-02-18
mutoko,ZW,1581994296,22,95,-17.4,32.23,62.44,1.34,2020-02-18
la union,PE,1581994297,23,66,-5.4,-80.75,78.33,12.64,2020-02-18
airai,TL,1581994297,55,65,-8.93,125.41,80.98,4.16,2020-02-18
coos bay,US,1581994275,1,81,43.37,-124.22,46.4,11.41,2020-02-18
xalpatlahuac,MX,1581994298,0,74,17.47,-98.62,62.82,6.22,2020-02-18
ruidoso,US,1581994298,1,34,33.33,-105.67,60.8,10.29,2020-02-18
inirida,CO,1581994298,47,69,3.87,-67.92,79.25,1.95,2020-02-18
grand island,US,1581994254,90,67,40.92,-98.34,32.0,11.41,2020-02-18
pangai,TO,1581994299,40,74,-19.8,-174.35,82.4,13.87,2020-02-18
george town,MY,1581994273,20,70,5.41,100.34,84.2,4.7,2020-02-18
gamba,GA,1581994300,100,87,-2.65,10.0,78.12,3.83,2020-02-18
prince albert,CA,1581994300,5,57,53.2,-105.77,-7.6,9.17,2020-02-18
redmond,US,1581994188,20,86,47.67,-122.12,43.0,2.3,2020-02-18
zakharovo,RU,1581994301,100,78,54.37,39.28,36.0,5.01,2020-02-18
yenotayevka,RU,1581994302,0,87,47.25,47.03,31.48,9.84,2020-02-18
fredericksburg,US,1581994017,1,69,38.3,-77.46,41.0,4.5,2020-02-18
severomorsk,RU,1581994303,75,86,69.07,33.42,30.2,11.18,2020-02-18
los llanos de aridane,ES,1581994303,90,72,28.66,-17.92,68.0,12.75,2020-02-18
kandrian,PG,1581994303,98,82,-6.22,149.55,84.07,3.51,2020-02-18
abu samrah,SY,1581994304,63,91,35.3,37.18,42.28,8.52,2020-02-18
qostanay,KZ,1581994304,75,92,53.17,63.58,8.6,6.71,2020-02-18
santiago del estero,AR,1581994304,100,57,-27.8,-64.26,86.45,5.53,2020-02-18
toora-khem,RU,1581994305,100,94,52.47,96.11,4.96,1.41,2020-02-18
pelotas,BR,1581994207,100,93,-31.77,-52.34,74.44,6.91,2020-02-18
prince rupert,CA,1581994305,90,93,54.32,-130.32,37.4,4.7,2020-02-18
uribia,CO,1581994306,98,70,11.71,-72.27,77.77,9.86,2020-02-18
alyangula,AU,1581994306,0,52,-13.85,136.42,93.2,6.93,2020-02-18
kimbe,PG,1581994307,37,68,-5.55,150.14,86.95,10.85,2020-02-18
panama city,PA,1581994183,40,74,8.99,-79.52,82.4,9.17,2020-02-18
itoman,JP,1581994307,75,54,26.12,127.67,57.2,18.34,2020-02-18
veraval,IN,1581994308,0,21,20.9,70.37,78.26,9.06,2020-02-18
along,IN,1581994308,98,90,28.17,94.77,57.58,2.86,2020-02-18
kuala terengganu,MY,1581994303,40,79,5.33,103.14,84.2,9.17,2020-02-18
fox lake,US,1581994309,90,93,42.4,-88.18,37.4,9.17,2020-02-18
aksarka,RU,1581994309,100,93,66.56,67.8,19.72,23.22,2020-02-18
lodwar,KE,1581994309,24,46,3.12,35.6,83.75,9.6,2020-02-18
kununurra,AU,1581994310,30,50,-15.77,128.73,95.0,4.7,2020-02-18
ayan,RU,1581994310,99,73,56.45,138.17,12.07,4.09,2020-02-18
manicore,BR,1581994311,100,97,-5.81,-61.3,75.31,1.97,2020-02-18
andenes,NO,1581994311,100,80,69.31,16.12,35.6,32.21,2020-02-18
itarema,BR,1581994311,93,91,-2.92,-39.92,75.83,2.73,2020-02-18
maputo,MZ,1581994180,40,83,-25.97,32.59,79.0,9.17,2020-02-18
birobidzhan,RU,1581994312,4,76,48.8,132.95,17.35,3.06,2020-02-18
poronaysk,RU,1581994312,100,78,49.22,143.12,13.62,6.35,2020-02-18
deder,ET,1581994313,0,73,9.32,41.45,63.61,1.59,2020-02-18
progreso,MX,1581994314,75,65,21.28,-89.67,80.6,6.93,2020-02-18
bathsheba,BB,1581994314,40,74,13.22,-59.52,78.8,21.92,2020-02-18
roma,US,1581994157,1,73,43.21,-75.46,25.0,3.36,2020-02-18
turkistan,KZ,1581994315,89,72,43.0,68.0,27.95,5.93,2020-02-18
pundaguitan,PH,1581994315,50,77,6.37,126.17,80.44,9.06,2020-02-18
verkhnevilyuysk,RU,1581994315,99,91,63.45,120.32,-0.89,5.77,2020-02-18
katsuura,JP,1581994316,40,34,35.13,140.3,54.0,9.17,2020-02-18
okhotsk,RU,1581994316,80,74,59.38,143.3,3.11,5.93,2020-02-18
sabang,ID,1581994317,25,75,5.89,95.32,82.83,15.43,2020-02-18
kavieng,PG,1581994317,100,76,-2.57,150.8,84.24,14.27,2020-02-18
marawi,PH,1581994317,97,82,8.0,124.29,79.0,5.01,2020-02-18
talnakh,RU,1581994318,75,92,69.49,88.4,14.0,29.08,2020-02-18
lakota,CI,1581994318,11,98,5.85,-5.69,72.37,2.91,2020-02-18
hay river,CA,1581994318,40,75,60.82,-115.8,-20.2,2.24,2020-02-18
rosbach,DE,1581994319,75,75,50.8,7.62,46.99,12.75,2020-02-18
san pedro,PH,1581994319,40,65,14.35,121.02,86.0,5.82,2020-02-18
puebloviejo,CO,1581994319,7,58,10.99,-74.28,86.0,14.99,2020-02-18
coxim,BR,1581994320,100,79,-18.51,-54.76,78.66,4.56,2020-02-18
poltavka,RU,1581994320,0,95,54.37,71.76,3.27,8.9,2020-02-18
kerema,PG,1581994320,97,48,-7.96,145.78,91.65,9.01,2020-02-18
saldanha,ZA,1581994321,0,77,-33.01,17.94,60.8,5.82,2020-02-18
atar,MR,1581994321,65,15,20.52,-13.05,72.88,11.43,2020-02-18
kargasok,RU,1581994322,48,96,59.06,80.86,5.74,7.07,2020-02-18
nantucket,US,1581994322,1,64,41.28,-70.1,34.0,5.82,2020-02-18
griffith,US,1581994322,90,93,41.53,-87.42,37.4,11.41,2020-02-18
chuy,UY,1581994281,65,91,-33.7,-53.46,77.05,13.91,2020-02-18
hamada,JP,1581994323,75,64,34.88,132.08,39.2,18.34,2020-02-18
ekhabi,RU,1581994323,0,88,53.51,142.97,3.29,6.42,2020-02-18
naron,ES,1581994324,40,100,43.52,-8.15,43.0,4.7,2020-02-18
sile,TR,1581994324,0,100,41.18,29.61,37.99,6.93,2020-02-18
tucuman,AR,1581994175,75,65,-26.82,-65.22,80.6,13.87,2020-02-18
provideniya,RU,1581994325,90,78,64.38,-173.3,10.4,22.37,2020-02-18
mabaruma,GY,1581994325,36,98,8.2,-59.78,71.91,2.44,2020-02-18
makakilo city,US,1581994097,90,83,21.35,-158.09,77.0,10.29,2020-02-18
adrar,MR,1581994326,99,14,20.5,-10.07,72.64,10.27,2020-02-18
pitimbu,BR,1581994327,20,83,-7.47,-34.81,80.6,8.05,2020-02-18
daule,EC,1581994327,75,74,-1.86,-79.98,82.4,5.82,2020-02-18
xinmin,CN,1581994328,0,58,41.99,122.83,39.99,6.71,2020-02-18
imbituba,BR,1581994328,75,100,-28.24,-48.67,78.8,9.17,2020-02-18
nalut,LY,1581994328,0,61,30.33,10.85,45.57,8.14,2020-02-18
deniliquin,AU,1581994329,100,29,-35.53,144.97,84.24,12.15,2020-02-18
rawson,AR,1581994329,0,66,-43.3,-65.1,60.66,13.38,2020-02-18
portage,US,1581994329,75,60,41.17,-81.2,42.8,11.41,2020-02-18
riyadh,SA,1581994191,100,31,24.69,46.72,60.8,3.36,2020-02-18
kavaratti,IN,1581994330,100,68,10.57,72.64,81.41,5.01,2020-02-18
siilinjarvi,FI,1581994331,90,93,63.08,27.67,37.4,17.22,2020-02-18
bosobolo,CD,1581994331,100,86,4.18,19.9,71.65,3.62,2020-02-18
maldonado,UY,1581994106,75,100,-34.67,-54.92,71.6,10.29,2020-02-18
ancud,CL,1581994332,20,81,-41.87,-73.82,51.8,4.7,2020-02-18
soderhamn,SE,1581994332,27,70,61.3,17.06,42.01,5.01,2020-02-18
sobolevo,RU,1581994333,100,93,54.43,31.9,36.57,7.7,2020-02-18
hernani,ES,1581994333,40,93,43.27,-1.98,46.99,5.82,2020-02-18
urumqi,CN,1581994317,85,79,43.8,87.6,19.4,2.71,2020-02-18
marzuq,YE,1581994334,0,68,14.4,46.47,59.7,1.99,2020-02-18
abong mbang,CM,1581994334,15,99,3.98,13.18,65.3,2.35,2020-02-18
douglas,US,1581994205,90,81,41.3,-96.17,32.0,11.41,2020-02-18
solnechnyy,RU,1581994335,0,72,50.72,136.63,16.45,2.66,2020-02-18
acajutla,SV,1581994335,0,72,13.59,-89.83,82.4,12.24,2020-02-18
bengkulu,ID,1581994081,76,80,-3.8,102.27,78.78,3.74,2020-02-18
red bluff,US,1581994199,1,16,40.18,-122.24,59.0,14.99,2020-02-18
le port,RE,1581994336,90,78,-20.94,55.29,77.0,13.87,2020-02-18
aranos,NA,1581994337,100,76,-24.13,19.12,72.14,12.95,2020-02-18
san juan,AR,1581994337,0,27,-31.54,-68.54,74.62,24.14,2020-02-18
katherine,AU,1581994338,75,88,-14.47,132.27,77.0,9.17,2020-02-18
kayanza,BI,1581994338,3,95,-3.07,29.67,58.1,0.92,2020-02-18
kankaanpaa,FI,1581994338,100,70,61.8,22.42,42.8,17.22,2020-02-18
hobyo,SO,1581994339,66,76,5.35,48.53,76.26,12.44,2020-02-18
urubicha,BO,1581994339,0,75,-15.38,-62.95,78.62,3.53,2020-02-18
manono,CD,1581994340,100,98,-7.3,27.42,67.39,1.77,2020-02-18
bubaque,GW,1581994340,100,75,11.28,-15.83,78.89,7.43,2020-02-18
isangel,VU,1581994340,40,66,-19.55,169.27,87.8,9.17,2020-02-18
bindi,SL,1581994341,0,80,9.92,-11.45,62.46,0.92,2020-02-18
emerald,AU,1581994341,40,55,-23.53,148.17,91.99,6.93,2020-02-18
berlevag,NO,1581994341,100,76,70.86,29.09,34.7,31.76,2020-02-18
beyneu,KZ,1581994342,0,67,45.32,55.2,29.89,7.2,2020-02-18
qingdao,CN,1581994342,0,36,36.1,120.37,44.6,6.71,2020-02-18
klaksvik,FO,1581994342,100,80,62.23,-6.59,41.0,16.11,2020-02-18
pochutla,MX,1581994343,40,83,15.74,-96.47,82.4,7.56,2020-02-18
krasnoselkup,RU,1581994343,69,93,65.7,82.47,6.8,18.14,2020-02-18
cardston,CA,1581994344,90,78,49.2,-113.3,12.2,10.29,2020-02-18
ilulissat,GL,1581994344,99,65,69.22,-51.1,8.6,5.82,2020-02-18
luganville,VU,1581994344,40,74,-15.53,167.17,86.0,10.29,2020-02-18
olinda,BR,1581994345,40,70,-8.01,-34.86,84.2,5.82,2020-02-18
umea,SE,1581994345,69,93,63.83,20.26,35.6,4.7,2020-02-18
faanui,PF,1581994346,75,77,-16.48,-151.75,82.51,12.39,2020-02-18
sabha,LY,1581994346,0,55,27.04,14.43,48.79,6.67,2020-02-18
bulgan,MN,1581994346,100,75,48.81,103.53,12.85,2.89,2020-02-18
jacareacanga,BR,1581994347,78,96,-6.22,-57.75,74.28,1.9,2020-02-18
edd,ER,1581994347,0,55,13.93,41.69,78.1,2.35,2020-02-18
kamyshevatskaya,RU,1581994347,0,88,46.41,37.96,34.02,6.62,2020-02-18
sitka,US,1581994348,90,86,57.05,-135.33,37.4,8.05,2020-02-18
asosa,ET,1581994348,0,22,10.07,34.53,73.26,8.72,2020-02-18
aleksandrov gay,RU,1581994349,100,93,50.15,48.57,28.4,14.43,2020-02-18
tambovka,RU,1581994349,40,78,50.1,128.05,15.8,6.71,2020-02-18
baykit,RU,1581994349,100,94,61.67,96.37,6.57,1.07,2020-02-18
padang,ID,1581994350,100,85,-0.95,100.35,70.45,4.61,2020-02-18
koulikoro,ML,1581994350,0,11,14.0,-7.75,71.92,9.93,2020-02-18
junction city,US,1581994115,75,52,39.03,-96.83,44.6,16.11,2020-02-18
caravelas,BR,1581994326,27,83,-17.71,-39.25,80.35,16.31,2020-02-18
longyearbyen,SJ,1581994352,40,59,78.22,15.64,3.2,11.41,2020-02-18
kristiansund,NO,1581994352,74,75,63.11,7.73,41.0,19.46,2020-02-18
santa cruz de tenerife,ES,1581994352,89,93,28.47,-16.25,66.99,9.17,2020-02-18
wanning,CN,1581994353,100,76,18.8,110.4,64.83,9.1,2020-02-18
man,CI,1581994244,0,67,7.41,-7.55,68.0,3.02,2020-02-18
trofors,NO,1581994354,100,86,65.53,13.41,41.0,13.87,2020-02-18
russell,US,1581994354,90,100,32.35,-85.2,59.0,5.82,2020-02-18
iquitos,PE,1581994354,57,88,-3.75,-73.25,78.8,3.36,2020-02-18
la sarre,CA,1581994355,7,93,48.8,-79.2,7.12,7.74,2020-02-18
linda,US,1581994355,1,30,39.13,-121.55,64.4,3.36,2020-02-18
bauchi,NG,1581994355,100,25,10.5,10.0,63.91,3.27,2020-02-18
lagoa,PT,1581994356,13,61,39.05,-27.98,56.1,7.05,2020-02-18
vaculesti,RO,1581994356,97,69,47.88,26.42,37.4,2.66,2020-02-18
paracatu,BR,1581994356,100,92,-17.22,-46.87,69.73,3.15,2020-02-18
harper,LR,1581994357,0,93,4.38,-7.72,76.77,3.24,2020-02-18
luderitz,NA,1581994357,0,82,-26.65,15.16,62.6,9.17,2020-02-18
borogontsy,RU,1581994357,95,94,62.67,131.17,-8.97,1.77,2020-02-18
bolgatanga,GH,1581994358,0,10,10.79,-0.85,71.82,8.66,2020-02-18
quelimane,MZ,1581994358,12,93,-17.88,36.89,74.41,3.11,2020-02-18
ortakoy,TR,1581994359,0,92,38.74,34.04,23.0,6.93,2020-02-18
nouakchott,MR,1581994359,31,14,18.09,-15.98,78.8,11.41,2020-02-18
pendleton,US,1581994359,1,52,45.67,-118.79,44.01,4.09,2020-02-18
tema,GH,1581994360,0,89,5.67,-0.02,80.47,12.62,2020-02-18
camacha,PT,1581994351,75,88,33.08,-16.33,64.4,13.87,2020-02-18
havelock,US,1581994132,1,57,34.88,-76.9,51.8,9.17,2020-02-18
bikaner,IN,1581994361,0,17,28.02,73.3,66.06,2.57,2020-02-18
ranong,TH,1581994361,40,66,9.97,98.63,86.0,11.41,2020-02-18
son la,VN,1581994165,96,52,21.32,103.9,58.1,3.24,2020-02-18
nhulunbuy,AU,1581994362,33,50,-12.23,136.77,95.0,4.7,2020-02-18
gombong,ID,1581994362,38,59,-7.61,109.51,87.44,3.49,2020-02-18
mfou,CM,1581994363,100,95,3.72,11.64,69.73,4.47,2020-02-18
henties bay,NA,1581994363,100,89,-22.12,14.28,61.47,4.92,2020-02-18
san andres,CO,1581994246,40,74,12.58,-81.7,82.4,14.99,2020-02-18
newtownards,GB,1581994364,50,86,54.59,-5.69,37.99,13.87,2020-02-18
erenhot,CN,1581994364,100,72,43.65,111.98,19.81,10.78,2020-02-18
novokizhinginsk,RU,1581994364,37,81,51.61,109.59,13.55,3.09,2020-02-18
leh,IN,1581994365,0,35,34.17,77.58,-1.46,4.88,2020-02-18
teahupoo,PF,1581994365,20,66,-17.83,-149.27,87.8,8.05,2020-02-18
praia da vitoria,PT,1581994366,40,81,38.73,-27.07,51.8,8.86,2020-02-18
rocha,UY,1581994366,0,73,-34.48,-54.33,78.01,10.89,2020-02-18
hirara,JP,1581994261,75,51,24.8,125.28,59.0,10.29,2020-02-18
leningradskiy,RU,1581994367,98,96,69.38,178.42,-11.42,5.06,2020-02-18
macas,EC,1581994367,28,96,-2.32,-78.12,64.38,2.15,2020-02-18
puerto carreno,CO,1581994367,66,51,6.19,-67.49,85.1,7.54,2020-02-18
krasnokamensk,RU,1581994368,0,74,50.1,118.04,14.59,4.88,2020-02-18
porbandar,IN,1581994368,0,49,21.64,69.61,73.4,4.7,2020-02-18
howard springs,AU,1581994369,40,56,-12.5,131.05,93.2,12.75,2020-02-18
cedar city,US,1581994282,1,30,37.68,-113.06,41.0,9.17,2020-02-18
chase,CA,1581994369,75,59,50.82,-119.69,35.6,2.24,2020-02-18
visby,SE,1581994370,79,75,57.64,18.3,43.0,25.28,2020-02-18
ust-nera,RU,1581994370,100,78,64.57,143.2,-14.24,1.23,2020-02-18
san policarpo,PH,1581994371,0,72,12.18,125.51,81.05,18.16,2020-02-18
partenit,UA,1581994371,0,73,44.58,34.34,43.57,6.82,2020-02-18
namibe,AO,1581994371,50,75,-15.2,12.15,75.13,9.95,2020-02-18
san carlos de bariloche,AR,1581994372,0,50,-41.15,-71.31,51.8,14.99,2020-02-18
dudinka,RU,1581994372,75,92,69.41,86.18,14.0,29.08,2020-02-18
the valley,AI,1581994373,40,74,18.22,-63.06,78.8,10.29,2020-02-18
whitehorse,CA,1581994300,90,71,60.72,-135.05,3.2,21.92,2020-02-18
abu zabad,SD,1581994374,0,21,12.35,29.25,66.69,14.43,2020-02-18
hasaki,JP,1581994374,20,34,35.73,140.83,52.0,12.75,2020-02-18
emba,KZ,1581994375,71,96,48.83,58.14,10.58,7.85,2020-02-18
lazarev,RU,1581994375,34,90,52.23,141.51,0.93,9.91,2020-02-18
divnomorskoye,RU,1581994376,0,64,44.5,38.14,45.5,9.95,2020-02-18
iralaya,HN,1581994376,0,78,15.0,-83.23,81.12,20.04,2020-02-18
maiquetia,VE,1581994376,45,94,10.6,-66.95,77.0,12.75,2020-02-18
toppenish,US,1581994377,1,64,46.38,-120.31,44.01,6.93,2020-02-18
lebedyn,UA,1581994377,100,88,50.59,34.48,32.52,10.8,2020-02-18
rozhdestveno,RU,1581994377,40,84,53.24,50.06,32.0,22.37,2020-02-18
touros,BR,1581994378,33,83,-5.2,-35.46,80.6,9.17,2020-02-18
krasnogorsk,RU,1581994378,100,87,55.82,37.32,43.0,15.66,2020-02-18
purpe,RU,1581994379,92,87,64.48,76.69,19.99,28.48,2020-02-18
bluefields,NI,1581994379,0,96,12.01,-83.76,72.93,2.98,2020-02-18
gold coast,AU,1581994379,8,67,-28.0,153.43,93.0,1.99,2020-02-18
pemangkat,ID,1581994380,100,73,1.17,108.97,82.17,8.25,2020-02-18
flin flon,CA,1581994380,75,93,54.77,-101.86,-12.8,8.34,2020-02-18
muravlenko,RU,1581994380,81,81,63.79,74.52,15.46,31.21,2020-02-18
nanortalik,GL,1581994381,40,68,60.14,-45.24,21.2,6.02,2020-02-18
nehe,CN,1581994381,86,83,48.48,124.83,18.23,8.25,2020-02-18
toro,CO,1581994381,20,73,4.61,-76.08,75.2,0.94,2020-02-18
saint george,US,1581994382,1,41,37.1,-113.58,55.4,8.05,2020-02-18
terrace,CA,1581994351,20,80,54.52,-128.6,35.6,8.05,2020-02-18
quatre cocos,MU,1581994383,75,83,-20.21,57.76,77.0,4.7,2020-02-18
laguna,US,1581994383,1,21,38.42,-121.42,64.4,13.87,2020-02-18
sistranda,NO,1581994383,20,75,63.73,8.83,42.01,23.04,2020-02-18
merrill,US,1581994384,90,79,45.18,-89.68,28.99,5.23,2020-02-18
bodden town,KY,1581994384,20,88,19.28,-81.25,79.0,6.93,2020-02-18
auki,SB,1581994385,100,76,-8.77,160.7,84.45,16.33,2020-02-18
