City,Country,Date,Cloudiness (%),Humidity (%),Latitude (Deg),Longitude (Deg),Max Temperature (F),Wind Speed (mph)
mataura,NZ,1581990759,99,84,-46.19,168.86,292.04,1.79
port macquarie,AU,1581990759,40,62,-31.43,152.92,304.26,1.5
yellowknife,CA,1581990760,20,75,62.46,-114.35,244.26,2.1
port hardy,CA,1581990760,40,93,50.7,-127.42,277.15,1.5
akureyri,IS,1581990761,90,97,65.68,-18.09,273.15,4.1
flinders,AU,1581990761,20,58,-34.58,150.86,308.15,3.6
hilo,US,1581990761,1,54,19.73,-155.09,300.15,4.6
saint-philippe,RE,1581990762,90,73,-21.36,55.77,298.15,7.7
lata,PT,1581990762,0,81,40.16,-8.33,284.26,1.5
maceio,BR,1581990762,20,83,-9.67,-35.74,299.15,3.1
butaritari,KI,1581990763,9,81,3.07,172.79,301.93,5.26
ushuaia,AR,1581990752,75,66,-54.8,-68.3,282.15,7.7
mazagao,BR,1581990764,5,94,-0.12,-51.29,301.15,3.1
kodiak,US,1581990579,90,86,57.79,-152.41,277.15,7.2
tuatapere,NZ,1581990764,100,84,-46.13,167.68,292.04,1.79
lorengau,PG,1581990765,95,80,-2.02,147.27,301.74,6.46
hithadhoo,MV,1581990765,58,71,-0.6,73.08,301.96,3.37
thompson,CA,1581990765,5,63,55.74,-97.86,249.15,3.1
seoul,KR,1581990399,1,45,37.57,126.98,270.15,0.5
ribeira grande,PT,1581990766,69,73,38.52,-28.7,284.51,3.43
tura,IN,1581990766,0,51,25.52,90.22,296.35,1.29
melfi,IT,1581990767,90,86,41.0,15.65,276.15,10.8
pascagoula,US,1581990767,90,88,30.37,-88.56,291.15,2.6
rikitea,PF,1581990767,100,77,-23.12,-134.97,299.5,6.2
vaini,TO,1581990768,20,66,-21.2,-175.2,302.15,5.7
punta arenas,CL,1581990768,100,54,-53.15,-70.92,285.15,6.2
bredasdorp,ZA,1581990769,5,93,-34.53,20.04,290.93,1.5
hobart,AU,1581990705,75,48,-42.88,147.33,294.82,4.6
severo-kurilsk,RU,1581990770,100,74,50.68,156.12,265.32,2.28
palmer,US,1581990771,40,50,42.16,-72.33,273.71,1.13
los chiles,CR,1581990771,0,90,11.03,-84.72,294.26,14.31
usvyaty,RU,1581990771,96,87,55.75,30.75,275.86,3.9
pangnirtung,CA,1581990772,100,99,66.15,-65.71,240.85,0.94
san cristobal,VE,1581990772,20,62,7.77,-72.22,302.15,2.1
tautira,PF,1581990772,40,58,-17.73,-149.15,304.15,3.6
albany,US,1581990501,1,62,42.6,-73.97,271.48,1.0
barrow,US,1581990588,1,73,71.29,-156.79,236.15,1.5
bridlington,GB,1581990773,33,71,54.08,-0.19,278.71,10.8
cabo san lucas,MX,1581990633,75,27,22.89,-109.91,298.15,1.5
san vicente,AR,1581990774,35,89,-26.62,-54.13,295.87,1.76
busselton,AU,1581990775,100,26,-33.65,115.33,298.15,5.04
shimoda,JP,1581990775,20,46,34.67,138.95,284.82,4.1
hermanus,ZA,1581990776,66,89,-34.42,19.23,291.48,2.24
wageningen,NL,1581990776,75,81,51.97,5.67,281.15,8.7
puerto ayora,EC,1581990776,11,82,-0.74,-90.35,298.81,2.48
chapais,CA,1581990777,1,76,49.78,-74.85,251.15,2.1
kapaa,US,1581990777,1,65,22.08,-159.32,299.15,8.2
port elizabeth,ZA,1581990778,90,93,-33.92,25.57,292.15,4.6
aswan,EG,1581990778,45,63,24.09,32.91,284.87,2.93
pacific grove,US,1581990778,1,55,36.62,-121.92,289.26,2.1
pachora,IN,1581990779,0,18,20.67,75.35,296.65,1.42
castro,BR,1581990779,99,83,-24.79,-50.01,292.71,1.71
tilichiki,RU,1581990779,81,85,60.47,166.1,251.67,3.83
aden,YE,1581990595,0,72,12.78,45.04,295.87,5.87
pangody,RU,1581990780,100,85,65.85,74.49,264.13,12.78
agadir,MA,1581990507,0,87,30.42,-9.6,287.15,4.1
guerrero negro,MX,1581990781,100,84,27.98,-114.06,288.58,4.15
sangar,RU,1581990781,92,95,63.92,127.47,249.69,0.75
yerbogachen,RU,1581990781,22,91,61.28,108.01,253.85,1.77
walvis bay,NA,1581990782,62,93,-22.96,14.51,290.93,0.5
nikolskoye,RU,1581990782,75,80,59.7,30.79,277.59,4.0
vestmannaeyjar,IS,1581990782,100,61,63.44,-20.27,276.23,2.44
bambous virieux,MU,1581990783,40,88,-20.34,57.76,298.15,3.6
esperance,AU,1581990783,25,42,-33.87,121.9,293.15,4.6
conde,BR,1581990783,20,78,-7.26,-34.91,301.15,4.1
codrington,AU,1581990784,74,77,-38.27,141.97,291.62,9.88
jamestown,US,1581990784,90,55,42.1,-79.24,275.37,3.6
skibbereen,IE,1581990784,40,86,51.55,-9.27,276.15,5.1
new norfolk,AU,1581990785,75,48,-42.78,147.06,294.82,4.6
olga,RU,1581990785,30,65,43.74,135.29,268.65,8.1
kalmunai,LK,1581990785,11,65,7.42,81.82,299.29,5.59
lebu,CL,1581990786,0,77,-37.62,-73.65,284.86,3.25
syamzha,RU,1581990786,90,90,60.02,41.06,274.65,5.87
grindavik,IS,1581990787,75,71,63.84,-22.43,273.15,5.7
tocopilla,CL,1581990787,0,53,-22.09,-70.2,291.05,1.11
bay roberts,CA,1581990577,90,100,47.6,-53.26,273.15,7.2
pisco,PE,1581990788,75,88,-13.7,-76.22,296.15,8.2
sao felix do xingu,BR,1581990788,74,96,-6.64,-51.99,295.45,0.34
qaanaaq,GL,1581990789,60,63,77.48,-69.36,250.26,2.76
lavrentiya,RU,1581990789,100,59,65.58,-171.0,255.67,8.77
cherskiy,RU,1581990789,95,94,68.75,161.3,246.55,1.75
inhambane,MZ,1581990790,91,74,-23.86,35.38,300.14,3.59
aberystwyth,GB,1581990697,43,94,52.42,-4.08,278.15,0.89
coihaique,CL,1581990791,90,62,-45.58,-72.07,284.15,3.1
grand gaube,MU,1581990791,40,88,-20.01,57.66,298.15,3.6
port alfred,ZA,1581990791,100,94,-33.59,26.89,292.59,1.34
shakawe,BW,1581990792,48,77,-18.37,21.85,293.61,1.19
tuktoyaktuk,CA,1581990792,20,74,69.45,-133.04,241.15,3.6
oriximina,BR,1581990793,29,80,-1.77,-55.87,298.88,1.71
cururupu,BR,1581990522,100,98,-1.83,-44.87,296.67,0.59
aklavik,CA,1581990793,20,68,68.22,-135.01,246.15,1.0
luanda,AO,1581990203,90,94,-8.84,13.23,299.15,1.5
port augusta,AU,1581990794,75,46,-32.5,137.77,296.15,10.3
vuktyl,RU,1581990795,99,97,63.86,57.31,273.49,7.63
ust-maya,RU,1581990795,100,92,60.42,134.53,255.2,0.37
dikson,RU,1581990799,100,87,73.51,80.55,259.61,14.3
bethel,US,1581990658,5,55,41.37,-73.41,278.15,5.1
glushkovo,RU,1581990799,100,83,51.34,34.63,274.39,4.72
abbeville,FR,1581990800,75,70,50.1,1.83,281.15,6.2
carutapera,BR,1581990800,71,82,-1.2,-46.02,300.55,7.46
ahipara,NZ,1581990801,12,67,-35.17,173.17,303.15,0.45
khatanga,RU,1581990801,64,87,71.97,102.5,253.6,4.04
zyryanka,RU,1581990801,86,93,65.75,150.85,250.19,1.49
huarmey,PE,1581990802,97,77,-10.07,-78.15,295.0,1.86
carnarvon,AU,1581990802,97,78,-24.87,113.63,301.15,2.1
chirongui,YT,1581990803,100,94,-12.93,45.15,300.15,1.0
rafai,CF,1581990803,100,67,4.95,23.92,296.65,1.62
arman,RU,1581990803,0,69,59.7,150.17,257.29,1.45
bluff,NZ,1581990804,79,84,-46.6,168.33,292.04,1.79
qasigiannguit,GL,1581990804,99,65,68.82,-51.19,260.15,5.1
margate,GB,1581990804,0,87,51.38,1.39,279.82,6.2
mogadishu,SO,1581990805,81,80,2.04,45.34,299.99,8.32
bacungan,PH,1581990805,20,62,9.91,118.7,302.15,4.1
velika kladusa,BA,1581990805,62,71,45.19,15.81,284.26,5.1
lazaro cardenas,MX,1581990806,0,80,17.96,-102.2,296.67,0.64
saint-augustin,CA,1581990806,88,79,51.23,-58.65,256.86,6.76
barvinkove,UA,1581990807,95,88,48.91,37.02,271.33,4.79
tiksi,RU,1581990807,100,89,71.69,128.87,249.93,3.21
evensk,RU,1581990808,0,76,61.95,159.23,254.68,2.17
ponta do sol,PT,1581990808,40,77,32.67,-17.1,291.15,6.2
honningsvag,NO,1581990809,98,77,70.98,25.97,274.56,12.79
catamarca,AR,1581990809,15,78,-28.47,-65.79,294.82,1.5
chichli,IN,1581990810,0,17,22.83,78.82,292.65,0.05
avarua,CK,1581990566,100,78,-21.21,-159.78,301.15,6.7
olustvere,EE,1581990810,100,90,58.56,25.56,278.15,4.02
tahta,EG,1581990811,0,71,26.77,31.5,285.15,3.1
ambilobe,MG,1581990811,100,92,-13.2,49.05,297.55,1.36
norman wells,CA,1581990812,20,63,65.28,-126.83,249.15,1.5
deputatskiy,RU,1581990812,88,95,69.3,139.9,252.72,0.86
maragogi,BR,1581990812,5,76,-9.01,-35.22,301.15,5.39
cape town,ZA,1581990587,0,77,-33.93,18.42,292.59,1.0
aliwal north,ZA,1581990813,99,77,-30.69,26.71,290.93,7.57
ostrovnoy,RU,1581990814,91,81,68.05,39.51,270.88,13.17
lubango,AO,1581990814,100,90,-14.92,13.49,289.2,1.53
bani,DO,1581990815,23,77,18.28,-70.33,298.15,2.24
bikin,RU,1581990815,100,87,46.82,134.26,261.31,2.27
east london,ZA,1581990815,100,73,-33.02,27.91,295.27,5.47
chokurdakh,RU,1581990816,96,97,70.63,147.92,253.71,1.96
atambua,ID,1581990816,6,69,-9.11,124.89,301.96,2.29
siimusti,EE,1581990816,90,80,58.73,26.34,278.15,9.8
qaqortoq,GL,1581990817,85,50,60.72,-46.03,267.4,3.39
kirakira,SB,1581990817,100,81,-10.45,161.92,301.6,2.82
pevek,RU,1581990817,100,97,69.7,170.31,247.74,1.4
faya,SA,1581990818,0,54,18.39,42.45,287.15,1.4
batagay-alyta,RU,1581990818,100,94,67.8,130.41,256.4,0.43
apac,UG,1581990818,44,64,1.98,32.54,295.46,1.53
sisimiut,GL,1581990819,97,83,66.94,-53.67,255.58,4.27
nakamura,JP,1581990819,84,61,32.98,132.93,279.0,4.1
constitucion,CL,1581990819,0,65,-35.33,-72.42,286.75,3.76
san,ML,1581990820,0,10,13.3,-4.9,295.99,3.81
zaysan,KZ,1581990820,100,90,47.47,84.87,263.15,1.09
atuona,PF,1581990821,81,74,-9.8,-139.03,300.6,8.76
san francisco,US,1581990760,1,54,37.77,-122.42,294.15,5.1
vila franca do campo,PT,1581990821,40,71,37.72,-25.43,284.15,3.1
richards bay,ZA,1581990822,65,80,-28.78,32.04,299.58,9.6
clyde river,CA,1581990822,75,74,70.47,-68.59,241.15,1.5
portland,US,1581990718,20,49,45.52,-122.68,282.15,4.1
tual,ID,1581990823,18,75,-5.67,132.75,302.08,6.33
port lincoln,AU,1581990824,8,54,-34.73,135.87,292.39,9.95
general roca,AR,1581990824,0,26,-39.03,-67.58,294.15,7.7
xichang,CN,1581990718,95,63,27.9,102.26,280.93,1.83
araouane,ML,1581990825,89,13,18.9,-3.53,294.83,3.95
sorland,NO,1581990825,90,93,67.67,12.69,273.15,2.1
qui nhon,VN,1581990825,95,82,13.77,109.23,295.96,5.57
banda aceh,ID,1581990659,82,70,5.56,95.32,301.3,2.77
saskylakh,RU,1581990826,100,92,71.92,114.08,257.89,3.6
korla,CN,1581990827,20,88,41.76,86.15,274.26,1.38
rio grande,BR,1581990827,89,86,-32.03,-52.1,298.48,7.4
ulaangom,MN,1581990827,100,97,49.98,92.07,249.66,0.28
vao,NC,1581990828,77,80,-22.67,167.48,299.39,8.55
farsund,NO,1581990828,0,82,58.09,6.8,279.82,8.94
iranduba,BR,1581990828,37,94,-3.28,-60.19,299.15,1.0
belmonte,BR,1581990829,40,78,-15.86,-38.88,300.15,4.6
victoria,HK,1581990781,0,35,22.29,114.16,288.71,3.6
morehead,US,1581990788,1,58,37.27,-87.18,288.71,5.1
isla mujeres,MX,1581990830,5,78,21.23,-86.73,298.15,3.1
shetpe,KZ,1581990830,0,66,44.17,52.12,273.31,5.19
kaseda,JP,1581990831,75,72,31.42,130.32,275.15,3.1
boa vista,BR,1581990831,59,55,2.82,-60.67,303.15,5.1
husavik,IS,1581990832,90,96,66.04,-17.34,273.15,4.1
sao filipe,CV,1581990832,66,62,14.9,-24.5,296.08,8.67
dharmadam,IN,1581990832,20,88,11.78,75.43,296.15,2.6
cayenne,GF,1581990833,75,83,4.93,-52.33,299.15,3.1
tadine,NC,1581990833,31,75,-21.55,167.88,300.55,7.33
upernavik,GL,1581990833,100,90,72.79,-56.15,256.31,0.58
mar del plata,AR,1581990809,75,94,-38.0,-57.56,293.71,1.5
hoi an,VN,1581990834,75,82,15.88,108.33,293.15,0.5
westport,US,1581990786,1,52,41.14,-73.36,279.26,3.6
nosy varika,MG,1581990835,93,90,-20.58,48.53,297.1,1.21
dunedin,NZ,1581990733,78,77,-45.87,170.5,290.93,1.19
nikolayevsk-na-amure,RU,1581990836,54,86,53.14,140.73,257.71,1.93
mount gambier,AU,1581990836,75,82,-37.83,140.77,292.15,7.2
salinas,US,1581990837,1,55,36.68,-121.66,289.26,2.1
egvekinot,RU,1581990837,94,95,66.32,-179.17,245.45,7.14
souillac,MU,1581990837,40,88,-20.52,57.52,298.15,3.6
turukhansk,RU,1581990838,100,93,65.82,87.98,264.33,5.43
nassau,US,1581990810,1,56,40.75,-73.58,279.82,3.62
hovd,MN,1581990838,100,60,48.01,91.64,257.64,1.06
puerto ayacucho,VE,1581990839,55,72,5.66,-67.62,299.11,1.21
veliki preslav,BG,1581990839,0,85,43.17,26.82,275.21,1.97
kruisfontein,ZA,1581990839,7,94,-34.0,24.73,290.51,3.97
college,US,1581990840,90,84,64.86,-147.8,262.15,1.75
tasiilaq,GL,1581990840,100,58,65.61,-37.64,272.15,11.8
bitung,ID,1581990840,40,70,1.45,125.18,303.15,2.6
fortuna,US,1581990740,1,81,40.6,-124.16,284.15,5.1
arraial do cabo,BR,1581990842,65,83,-22.97,-42.03,299.15,5.7
kungurtug,RU,1581990842,48,68,50.6,97.52,259.36,0.47
rabaul,PG,1581990842,100,75,-4.2,152.17,302.21,9.34
bagli,IN,1581990843,0,71,22.65,76.35,287.15,1.5
garmsar,IR,1581990843,0,67,35.22,52.34,279.18,2.82
eyl,SO,1581990844,51,74,7.98,49.82,298.65,6.63
aligudarz,IR,1581990844,50,88,33.4,49.69,273.89,1.68
tortoli,IT,1581990844,5,93,39.93,9.66,285.15,6.7
williston,US,1581990761,75,79,48.15,-103.62,270.15,2.1
mbanza-ngungu,CD,1581990845,86,97,-5.25,14.87,292.77,0.19
vila velha,BR,1581990595,40,88,-20.33,-40.29,299.15,2.6
sfantu gheorghe,RO,1581990846,80,84,45.87,25.78,272.59,1.79
taksimo,RU,1581990846,95,74,56.34,114.88,261.27,1.57
georgetown,MY,1581990565,20,83,5.41,100.34,300.15,1.0
coquimbo,CL,1581990847,0,87,-29.95,-71.34,289.15,1.5
ayagoz,KZ,1581990847,100,95,47.97,80.44,264.4,0.8
marion,US,1581990791,90,100,39.77,-86.16,282.04,4.6
pineville,US,1581990848,90,93,31.32,-92.43,292.15,3.66
saint-francois,FR,1581990848,0,75,46.42,3.91,278.15,2.1
shasta lake,US,1581990849,1,36,40.68,-122.37,290.15,1.5
mtimbira,TZ,1581990849,68,98,-8.78,36.35,293.56,0.79
putai,FR,1581990849,0,86,46.66,1.99,278.15,5.1
west bay,KY,1581990850,20,83,19.37,-81.42,300.15,3.6
hami,CN,1581990850,0,38,42.8,93.45,268.02,0.27
mahebourg,MU,1581990850,40,88,-20.41,57.7,298.15,3.6
mareeba,AU,1581990851,40,63,-17.0,145.43,306.15,4.1
svetlaya,RU,1581990851,100,79,46.54,138.33,266.8,7.75
jibuti,DJ,1581990852,37,77,11.5,42.5,295.36,5.86
puerto leguizamo,CO,1581990852,47,94,-0.19,-74.78,296.27,0.81
torbay,CA,1581990853,90,100,47.67,-52.73,273.15,7.2
nouadhibou,MR,1581990853,73,53,20.93,-17.03,295.15,1.5
asaba,NG,1581990853,17,96,6.2,6.73,296.58,1.1
bonfim,BR,1581990854,37,53,3.08,-59.95,302.0,4.8
geraldton,AU,1581990854,100,27,-28.77,114.6,306.15,8.2
iqaluit,CA,1581990854,5,67,63.75,-68.51,241.48,1.5
carberry,CA,1581990855,40,71,49.87,-99.36,258.15,5.7
nabire,ID,1581990855,86,57,-3.37,135.48,305.11,1.89
hambantota,LK,1581990855,0,100,6.12,81.12,294.15,1.0
bestobe,KZ,1581990856,53,92,52.5,73.1,259.51,5.22
barra dos coqueiros,BR,1581990857,40,70,-10.91,-37.04,302.15,6.7
iiyama,JP,1581990857,100,80,36.85,138.37,277.04,0.45
bar harbor,US,1581990858,1,45,44.39,-68.2,270.37,2.6
khash,IR,1581990858,100,34,28.22,61.22,284.27,1.46
jiuquan,CN,1581990859,0,29,39.74,98.52,267.99,0.95
bela,IN,1581990859,0,50,25.93,81.98,289.35,2.29
buraydah,SA,1581990859,100,63,26.33,43.98,289.15,5.1
ketchikan,US,1581990860,75,86,55.34,-131.65,279.15,3.1
narasannapeta,IN,1581990860,0,65,18.42,84.05,298.65,1.57
port-gentil,GA,1581990860,100,80,-0.72,8.78,300.95,4.93
olafsvik,IS,1581990861,100,81,64.89,-23.71,273.74,8.3
nome,US,1581990861,90,85,64.5,-165.41,264.26,9.3
sadovo,BG,1581990862,0,80,42.13,24.93,274.15,0.36
glasgow,GB,1581990790,60,86,55.87,-4.26,277.15,7.7
yar-sale,RU,1581990862,100,93,66.83,70.83,262.92,11.7
sechura,PE,1581990863,33,87,-5.56,-80.82,296.24,4.19
karratha,AU,1581990863,0,76,-20.74,116.85,301.9,5.73
tomatlan,MX,1581990863,2,77,19.93,-105.25,293.38,0.46
chernyshevskiy,RU,1581990864,0,94,63.01,112.47,251.8,1.24
taunggyi,MM,1581990300,0,26,20.78,97.03,296.77,2.27
broome,US,1581990864,1,79,42.25,-75.83,272.04,2.1
pachperwa,IN,1581990865,0,56,27.52,82.65,289.37,2.47
kalaleh,IR,1581990865,98,87,37.38,55.49,279.15,1.0
puri,IN,1581990865,40,100,19.8,85.85,290.15,2.63
alamos,MX,1581990866,94,65,27.02,-108.93,295.93,0.89
smithers,CA,1581990613,40,59,54.78,-127.17,274.15,1.0
sur,OM,1581990866,100,50,22.57,59.53,291.64,2.2
caibarien,CU,1581990867,20,83,22.52,-79.47,296.15,4.1
altamira,BR,1581990868,95,96,-3.2,-52.21,296.76,1.04
lichuan,CN,1581990868,22,74,30.3,108.85,278.9,1.19
sao joao da barra,BR,1581990869,30,86,-21.64,-41.05,298.93,8.15
jalu,LY,1581990869,4,66,29.03,21.55,284.24,5.13
vung tau,VN,1581990870,0,50,10.35,107.08,302.94,5.16
asyut,EG,1581990870,0,81,27.18,31.18,283.15,4.6
yulara,AU,1581990870,0,33,-25.24,130.99,304.15,7.2
tiznit,MA,1581990871,0,33,29.58,-9.5,288.08,0.57
sembe,CG,1581990871,81,85,1.65,14.58,294.92,2.21
tiarei,PF,1581990871,40,58,-17.53,-149.33,304.15,3.6
sindor,RU,1581990872,100,93,62.86,51.89,273.95,6.44
innisfail,AU,1581990872,0,57,-17.53,146.03,303.71,0.89
port blair,IN,1581990872,5,94,11.67,92.75,293.15,1.0
chokwe,MZ,1581990873,0,95,-24.53,32.98,296.39,2.23
massaguet,TD,1581990873,0,19,12.48,15.44,297.15,4.6
avera,US,1581990873,90,87,33.19,-82.53,288.15,1.5
coahuayana,MX,1581990874,40,94,18.73,-103.68,295.15,1.66
dombarovskiy,RU,1581990874,98,92,50.76,59.54,264.67,6.43
kahului,US,1581990875,40,73,20.89,-156.47,297.15,9.3
tukrah,LY,1581990875,73,63,32.53,20.58,285.82,4.13
shaunavon,CA,1581990876,100,96,49.65,-108.42,255.59,6.04
hamilton,US,1581990706,75,65,39.18,-84.53,283.15,4.03
cidreira,BR,1581990876,77,89,-30.18,-50.21,298.26,8.93
beringovskiy,RU,1581990877,95,88,63.05,179.32,251.36,10.9
acapulco,MX,1581990865,20,83,16.86,-99.89,300.15,2.6
itacoatiara,BR,1581990878,23,93,-3.14,-58.44,297.32,0.72
ligayan,PH,1581990878,99,76,4.65,119.47,300.92,5.6
waipawa,NZ,1581990878,100,93,-41.41,175.52,292.15,8.2
santa ana,US,1581990824,1,39,33.75,-117.87,293.15,3.6
penzance,GB,1581990879,42,81,50.12,-5.54,281.48,8.7
lethem,GY,1581990880,0,54,3.38,-59.8,302.1,4.92
goma,CD,1581990880,4,96,-1.68,29.22,286.15,0.72
meulaboh,ID,1581990880,98,77,4.14,96.13,299.65,4.1
gao,ML,1581990881,2,20,16.64,1.64,293.92,6.18
hervey bay,AU,1581990881,90,94,-25.3,152.85,304.82,5.1
lasa,IT,1581990881,75,69,46.62,10.7,278.15,3.1
kathu,TH,1581990882,75,83,7.92,98.33,299.15,1.5
yaviza,PA,1581990882,33,92,8.15,-77.69,296.21,1.65
pontianak,ID,1581990883,85,58,-0.03,109.33,303.61,1.53
shelburne,CA,1581990883,1,62,44.08,-80.2,271.48,4.1
quang ngai,VN,1581990883,100,83,15.12,108.8,295.68,7.1
kaitangata,NZ,1581990884,61,91,-46.28,169.85,290.93,3.58
adre,TD,1581990884,0,27,13.47,22.2,290.77,6.65
gat,IL,1581990885,20,93,31.61,34.76,284.82,1.5
daru,PG,1581990885,27,56,-9.08,143.21,306.3,2.73
filadelfia,US,1581990607,1,54,39.95,-75.16,279.26,1.6
orissaare,EE,1581990886,90,81,58.56,23.08,279.26,10.3
preobrazheniye,RU,1581990886,37,62,42.9,133.91,269.23,2.12
zolotkovo,RU,1581990887,100,95,55.53,41.11,274.77,4.74
batagay,RU,1581990887,100,94,67.63,134.63,253.39,0.33
salalah,OM,1581990888,20,68,17.02,54.09,294.15,1.0
humaita,BR,1581990809,34,87,-7.51,-63.02,298.11,0.76
benghazi,LY,1581990888,34,62,32.12,20.07,286.3,3.36
marrakesh,MA,1581990889,0,62,31.63,-8.01,286.15,1.09
mahon,ES,1581990889,33,81,39.89,4.27,285.15,7.7
alice springs,AU,1581990819,0,14,-23.7,133.88,307.15,7.2
augusto correa,BR,1581990890,100,94,-1.02,-46.63,297.98,2.8
careiro da varzea,BR,1581990890,87,94,-3.2,-59.81,299.15,1.0
zhigansk,RU,1581990890,79,93,66.77,123.37,247.26,1.73
anadyr,RU,1581990891,40,68,64.75,177.48,247.59,8.0
nishihara,JP,1581990891,75,50,26.18,127.76,287.15,10.8
rundu,NA,1581990891,27,68,-17.93,19.77,295.15,1.0
launceston,AU,1581990569,47,40,-41.45,147.17,293.71,3.1
diffa,NE,1581990892,67,31,13.32,12.61,291.62,4.18
mana,GF,1581990892,37,88,5.66,-53.78,296.73,1.63
saint pete beach,US,1581990893,1,88,27.73,-82.74,296.15,1.86
narsaq,GL,1581990893,99,60,60.92,-46.05,259.04,2.94
mutoko,ZW,1581990894,22,95,-17.4,32.23,290.06,0.6
la union,PE,1581990894,23,66,-5.4,-80.75,298.89,5.65
airai,TL,1581990894,55,65,-8.93,125.41,300.36,1.86
coos bay,US,1581990678,1,76,43.37,-124.22,283.15,7.2
xalpatlahuac,MX,1581990895,0,74,17.47,-98.62,290.27,2.78
ruidoso,US,1581990895,1,31,33.33,-105.67,287.59,5.1
inirida,CO,1581990896,47,69,3.87,-67.92,299.4,0.87
grand island,US,1581990605,90,67,40.92,-98.34,273.15,13.4
pangai,TO,1581990897,20,74,-19.8,-174.35,301.15,6.2
george town,MY,1581990733,20,74,5.41,100.34,301.15,1.5
gamba,GA,1581990898,100,87,-2.65,10.0,298.77,1.71
prince albert,CA,1581990898,5,58,53.2,-105.77,252.15,5.1
redmond,US,1581990876,20,65,47.67,-122.12,280.37,1.03
zakharovo,RU,1581990899,100,77,54.37,39.28,275.37,3.58
yenotayevka,RU,1581990899,0,87,47.25,47.03,272.86,4.4
fredericksburg,US,1581990770,1,69,38.3,-77.46,279.82,2.01
severomorsk,RU,1581990900,75,87,69.07,33.42,273.15,5.0
los llanos de aridane,ES,1581990900,75,72,28.66,-17.92,293.71,5.7
kandrian,PG,1581990901,98,82,-6.22,149.55,302.08,1.57
abu samrah,SY,1581990901,63,91,35.3,37.18,278.86,3.81
qostanay,KZ,1581990902,75,84,53.17,63.58,258.15,4.0
santiago del estero,AR,1581990734,100,57,-27.8,-64.26,303.4,2.47
toora-khem,RU,1581990902,100,94,52.47,96.11,258.13,0.63
pelotas,BR,1581990835,100,93,-31.77,-52.34,296.73,3.09
prince rupert,CA,1581990903,90,80,54.32,-130.32,278.15,1.5
uribia,CO,1581990903,98,70,11.71,-72.27,298.58,4.41
alyangula,AU,1581990904,0,63,-13.85,136.42,306.15,3.6
kimbe,PG,1581990904,37,68,-5.55,150.14,303.68,4.85
panama city,PA,1581990702,40,78,8.99,-79.52,301.15,4.1
itoman,JP,1581990905,75,50,26.12,127.67,287.15,10.8
veraval,IN,1581990905,0,21,20.9,70.37,298.85,4.05
along,IN,1581990906,98,90,28.17,94.77,287.36,1.28
kuala terengganu,MY,1581990906,40,83,5.33,103.14,301.15,3.6
fox lake,US,1581990906,90,93,42.4,-88.18,275.93,1.5
aksarka,RU,1581990907,100,93,66.56,67.8,266.33,10.38
lodwar,KE,1581990907,24,46,3.12,35.6,301.9,4.29
kununurra,AU,1581990907,30,49,-15.77,128.73,307.15,1.5
ayan,RU,1581990908,99,73,56.45,138.17,262.08,1.83
manicore,BR,1581990908,100,97,-5.81,-61.3,297.21,0.88
andenes,NO,1581990908,100,93,69.31,16.12,275.15,14.4
itarema,BR,1581990909,93,91,-2.92,-39.92,297.5,1.22
maputo,MZ,1581990909,40,88,-25.97,32.59,299.26,3.6
birobidzhan,RU,1581990909,4,76,48.8,132.95,265.01,1.37
poronaysk,RU,1581990910,100,78,49.22,143.12,262.94,2.84
deder,ET,1581990910,0,73,9.32,41.45,290.71,0.71
progreso,MX,1581990911,75,61,21.28,-89.67,301.15,3.1
bathsheba,BB,1581990911,40,78,13.22,-59.52,299.15,9.3
roma,US,1581990574,1,73,43.21,-75.46,269.26,2.1
turkistan,KZ,1581990912,89,72,43.0,68.0,270.9,2.65
pundaguitan,PH,1581990912,50,77,6.37,126.17,300.06,4.05
verkhnevilyuysk,RU,1581990913,99,91,63.45,120.32,254.88,2.58
katsuura,JP,1581990913,20,29,35.13,140.3,284.26,3.1
okhotsk,RU,1581990913,80,74,59.38,143.3,257.1,2.65
sabang,ID,1581990914,25,75,5.89,95.32,301.39,6.9
kavieng,PG,1581990914,100,76,-2.57,150.8,302.17,6.38
marawi,PH,1581990915,97,87,8.0,124.29,298.15,4.92
talnakh,RU,1581990915,75,92,69.49,88.4,263.15,13.0
lakota,CI,1581990915,11,98,5.85,-5.69,295.58,1.3
hay river,CA,1581990916,20,75,60.82,-115.8,245.15,2.25
rosbach,DE,1581990916,75,75,50.8,7.62,282.04,5.1
san pedro,PH,1581990875,40,58,14.35,121.02,302.59,1.0
puebloviejo,CO,1581990917,7,62,10.99,-74.28,302.15,6.7
coxim,BR,1581990917,100,79,-18.51,-54.76,299.07,2.04
poltavka,RU,1581990917,0,95,54.37,71.76,257.19,3.98
kerema,PG,1581990918,97,48,-7.96,145.78,306.29,4.03
saldanha,ZA,1581990783,0,78,-33.01,17.94,291.17,4.51
atar,MR,1581990918,65,15,20.52,-13.05,295.86,5.11
kargasok,RU,1581990919,48,96,59.06,80.86,258.56,3.16
nantucket,US,1581990862,1,64,41.28,-70.1,273.71,3.1
griffith,US,1581990620,90,93,41.53,-87.42,276.15,7.2
chuy,UY,1581990920,65,91,-33.7,-53.46,298.18,6.22
hamada,JP,1581990920,75,86,34.88,132.08,276.15,7.2
ekhabi,RU,1581990920,0,88,53.51,142.97,257.2,2.87
naron,ES,1581990921,57,100,43.52,-8.15,279.26,2.6
sile,TR,1581990921,40,100,41.18,29.61,277.04,0.89
tucuman,AR,1581990664,75,69,-26.82,-65.22,300.15,3.1
provideniya,RU,1581990922,90,78,64.38,-173.3,261.15,11.0
mabaruma,GY,1581990922,36,98,8.2,-59.78,295.32,1.09
makakilo city,US,1581990923,90,78,21.35,-158.09,300.15,3.6
adrar,MR,1581990923,99,14,20.5,-10.07,295.73,4.59
pitimbu,BR,1581990924,20,78,-7.47,-34.81,301.15,4.1
daule,EC,1581990924,75,74,-1.86,-79.98,301.15,3.1
xinmin,CN,1581990924,0,57,41.99,122.83,279.82,2.0
imbituba,BR,1581990925,40,100,-28.24,-48.67,299.15,3.1
nalut,LY,1581990925,0,61,30.33,10.85,280.69,3.64
deniliquin,AU,1581990926,100,29,-35.53,144.97,302.17,5.43
rawson,AR,1581990911,0,66,-43.3,-65.1,289.07,5.98
portage,US,1581990926,40,60,41.17,-81.2,279.26,5.1
riyadh,SA,1581990682,100,25,24.69,46.72,289.15,2.1
kavaratti,IN,1581990927,100,68,10.57,72.64,300.6,2.24
siilinjarvi,FI,1581990927,90,86,63.08,27.67,276.15,6.7
bosobolo,CD,1581990928,100,86,4.18,19.9,295.18,1.62
maldonado,UY,1581990928,75,83,-34.67,-54.92,295.15,1.0
ancud,CL,1581990929,75,71,-41.87,-73.82,286.15,2.1
soderhamn,SE,1581990929,27,69,61.3,17.06,279.26,3.58
sobolevo,RU,1581990930,100,93,54.43,31.9,275.69,3.44
hernani,ES,1581990930,40,93,43.27,-1.98,282.15,3.1
urumqi,CN,1581990631,85,79,43.8,87.6,266.15,2.0
marzuq,YE,1581990931,0,68,14.4,46.47,288.54,0.89
abong mbang,CM,1581990931,15,99,3.98,13.18,291.65,1.05
douglas,US,1581990932,90,81,41.3,-96.17,273.71,12.3
solnechnyy,RU,1581990932,0,72,50.72,136.63,264.51,1.19
acajutla,SV,1581990932,0,72,13.59,-89.83,301.15,5.47
bengkulu,ID,1581990825,76,80,-3.8,102.27,299.14,1.67
red bluff,US,1581990933,1,16,40.18,-122.24,291.15,7.7
le port,RE,1581990933,90,88,-20.94,55.29,298.15,5.1
aranos,NA,1581990934,100,76,-24.13,19.12,295.45,5.79
san juan,AR,1581990729,0,27,-31.54,-68.54,296.83,10.79
katherine,AU,1581990935,75,88,-14.47,132.27,298.15,4.1
kayanza,BI,1581990935,3,95,-3.07,29.67,287.65,0.41
kankaanpaa,FI,1581990935,90,80,61.8,22.42,278.15,8.7
hobyo,SO,1581990936,66,76,5.35,48.53,297.74,5.56
urubicha,BO,1581990936,0,75,-15.38,-62.95,299.05,1.58
manono,CD,1581990936,100,98,-7.3,27.42,292.81,0.79
bubaque,GW,1581990937,100,75,11.28,-15.83,299.2,3.32
isangel,VU,1581990937,35,62,-19.55,169.27,304.15,4.6
bindi,SL,1581990937,0,80,9.92,-11.45,290.07,0.41
emerald,AU,1581990938,75,62,-23.53,148.17,305.93,2.6
berlevag,NO,1581990938,100,76,70.86,29.09,274.65,14.2
beyneu,KZ,1581990938,0,67,45.32,55.2,271.98,3.22
qingdao,CN,1581990939,0,52,36.1,120.37,278.15,1.0
klaksvik,FO,1581990939,100,80,62.23,-6.59,278.15,7.2
pochutla,MX,1581990940,40,51,15.74,-96.47,302.15,3.38
krasnoselkup,RU,1581990940,69,93,65.7,82.47,259.15,8.11
cardston,CA,1581990940,90,78,49.2,-113.3,262.15,4.1
ilulissat,GL,1581990941,99,65,69.22,-51.1,260.15,5.1
luganville,VU,1581990941,40,79,-15.53,167.17,303.15,5.1
olinda,BR,1581990690,40,70,-8.01,-34.86,302.15,4.6
umea,SE,1581990942,69,100,63.83,20.26,274.26,3.6
faanui,PF,1581990930,75,77,-16.48,-151.75,301.21,5.54
sabha,LY,1581990943,0,55,27.04,14.43,282.48,2.98
bulgan,MN,1581990943,100,75,48.81,103.53,262.51,1.29
jacareacanga,BR,1581990943,78,96,-6.22,-57.75,296.64,0.85
edd,ER,1581990944,0,55,13.93,41.69,298.76,1.05
kamyshevatskaya,RU,1581990944,0,88,46.41,37.96,274.27,2.96
sitka,US,1581990944,90,86,57.05,-135.33,276.15,4.6
asosa,ET,1581990945,0,22,10.07,34.53,296.07,3.9
aleksandrov gay,RU,1581990945,100,93,50.15,48.57,271.15,6.45
tambovka,RU,1581990946,20,78,50.1,128.05,263.15,1.0
baykit,RU,1581990946,100,94,61.67,96.37,259.02,0.48
padang,ID,1581990808,100,85,-0.95,100.35,294.51,2.06
koulikoro,ML,1581990947,0,11,14.0,-7.75,295.33,4.44
junction city,US,1581990947,75,49,39.03,-96.83,281.15,6.2
caravelas,BR,1581990948,27,83,-17.71,-39.25,300.01,7.29
longyearbyen,SJ,1581990948,20,59,78.22,15.64,257.15,9.8
kristiansund,NO,1581990949,74,75,63.11,7.73,278.15,7.7
santa cruz de tenerife,ES,1581990949,89,93,28.47,-16.25,292.59,3.6
wanning,CN,1581990949,100,76,18.8,110.4,291.39,4.07
man,CI,1581990950,0,67,7.41,-7.55,293.15,1.35
trofors,NO,1581990950,75,86,65.53,13.41,278.15,6.7
russell,US,1581990951,90,93,32.35,-85.2,288.71,1.5
iquitos,PE,1581990951,57,88,-3.75,-73.25,299.15,1.5
la sarre,CA,1581990951,7,93,48.8,-79.2,259.33,3.46
linda,US,1581990952,1,28,39.13,-121.55,293.15,5.7
bauchi,NG,1581990952,100,25,10.5,10.0,290.88,1.46
lagoa,PT,1581990953,13,61,39.05,-27.98,286.54,3.15
vaculesti,RO,1581990953,97,45,47.88,26.42,281.15,3.6
paracatu,BR,1581990953,100,92,-17.22,-46.87,294.11,1.41
harper,LR,1581990954,0,93,4.38,-7.72,298.02,1.45
luderitz,NA,1581990954,0,77,-26.65,15.16,291.15,5.7
borogontsy,RU,1581990954,95,94,62.67,131.17,250.39,0.79
bolgatanga,GH,1581990955,0,10,10.79,-0.85,295.27,3.87
quelimane,MZ,1581990955,12,88,-17.88,36.89,300.15,1.5
ortakoy,TR,1581990955,0,92,38.74,34.04,268.15,2.6
nouakchott,MR,1581990956,31,13,18.09,-15.98,301.15,6.7
pendleton,US,1581990956,1,42,45.67,-118.79,282.15,2.1
tema,GH,1581990957,0,89,5.67,-0.02,300.08,5.64
camacha,PT,1581990957,40,77,33.08,-16.33,291.15,5.7
havelock,US,1581990958,1,66,34.88,-76.9,285.15,3.6
bikaner,IN,1581990958,0,17,28.02,73.3,292.07,1.15
ranong,TH,1581990958,40,74,9.97,98.63,301.15,3.1
son la,VN,1581990959,96,52,21.32,103.9,287.65,1.45
nhulunbuy,AU,1581990918,40,59,-12.23,136.77,306.15,3.6
gombong,ID,1581990959,38,59,-7.61,109.51,303.95,1.56
mfou,CM,1581990960,20,94,3.72,11.64,296.15,1.5
henties bay,NA,1581990960,100,91,-22.12,14.28,290.93,2.2
san andres,CO,1581990771,40,74,12.58,-81.7,301.15,6.2
newtownards,GB,1581990961,50,86,54.59,-5.69,276.48,6.7
erenhot,CN,1581990961,100,72,43.65,111.98,266.38,4.82
novokizhinginsk,RU,1581990961,37,81,51.61,109.59,262.9,1.38
leh,IN,1581990926,0,35,34.17,77.58,254.56,2.18
teahupoo,PF,1581990962,40,58,-17.83,-149.27,304.15,3.6
praia da vitoria,PT,1581990963,40,76,38.73,-27.07,284.15,3.96
rocha,UY,1581990746,0,73,-34.48,-54.33,298.71,4.87
hirara,JP,1581990963,75,50,24.8,125.28,288.15,4.6
leningradskiy,RU,1581990964,98,96,69.38,178.42,249.03,2.26
macas,EC,1581990964,28,96,-2.32,-78.12,291.14,0.96
puerto carreno,CO,1581990964,66,51,6.19,-67.49,302.65,3.37
krasnokamensk,RU,1581990965,0,74,50.1,118.04,263.48,2.18
porbandar,IN,1581990965,0,52,21.64,69.61,297.69,4.02
howard springs,AU,1581990965,40,66,-12.5,131.05,307.04,5.1
cedar city,US,1581990966,1,28,37.68,-113.06,281.15,2.6
chase,CA,1581990966,75,51,50.82,-119.69,277.15,1.5
visby,SE,1581990966,79,80,57.64,18.3,279.26,11.3
ust-nera,RU,1581990967,100,78,64.57,143.2,247.46,0.55
san policarpo,PH,1581990968,0,72,12.18,125.51,300.4,8.12
partenit,UA,1581990968,0,73,44.58,34.34,279.58,3.05
namibe,AO,1581990968,50,75,-15.2,12.15,297.11,4.45
san carlos de bariloche,AR,1581990880,20,82,-41.15,-71.31,284.15,6.7
dudinka,RU,1581990969,75,92,69.41,86.18,263.15,13.0
the valley,AI,1581990969,20,73,18.22,-63.06,299.15,5.7
whitehorse,CA,1581990843,90,65,60.72,-135.05,258.15,9.8
abu zabad,SD,1581990971,0,21,12.35,29.25,292.42,6.45
hasaki,JP,1581990971,20,36,35.73,140.83,283.15,4.6
emba,KZ,1581990972,71,96,48.83,58.14,261.25,3.51
lazarev,RU,1581990972,34,90,52.23,141.51,255.89,4.43
divnomorskoye,RU,1581990973,0,64,44.5,38.14,280.65,4.45
iralaya,HN,1581990973,0,78,15.0,-83.23,300.44,8.96
maiquetia,VE,1581990973,45,94,10.6,-66.95,298.15,5.7
toppenish,US,1581990974,40,52,46.38,-120.31,281.15,2.6
lebedyn,UA,1581990974,100,88,50.59,34.48,273.44,4.83
rozhdestveno,RU,1581990974,40,84,53.24,50.06,273.15,11.0
touros,BR,1581990975,20,83,-5.2,-35.46,300.15,3.6
krasnogorsk,RU,1581990975,100,87,55.82,37.32,278.15,6.0
purpe,RU,1581990975,92,87,64.48,76.69,266.48,12.73
bluefields,NI,1581990845,0,96,12.01,-83.76,295.89,1.33
gold coast,AU,1581990962,8,59,-28.0,153.43,305.93,0.89
pemangkat,ID,1581990977,100,73,1.17,108.97,301.02,3.69
flin flon,CA,1581990977,75,93,54.77,-101.86,248.26,3.73
muravlenko,RU,1581990977,81,81,63.79,74.52,263.96,13.95
nanortalik,GL,1581990978,40,68,60.14,-45.24,267.15,2.69
nehe,CN,1581990978,86,83,48.48,124.83,265.5,3.69
toro,CO,1581990978,20,73,4.61,-76.08,297.15,0.42
saint george,US,1581990979,1,33,37.1,-113.58,289.15,5.1
terrace,CA,1581990691,40,90,54.52,-128.6,276.15,3.1
quatre cocos,MU,1581990979,40,88,-20.21,57.76,298.15,3.6
laguna,US,1581990980,1,18,38.42,-121.42,293.15,5.1
sistranda,NO,1581990980,20,75,63.73,8.83,278.15,10.8
merrill,US,1581990861,90,80,45.18,-89.68,272.15,3.6
bodden town,KY,1581990981,20,83,19.28,-81.25,300.15,3.6
auki,SB,1581990982,100,76,-8.77,160.7,302.29,7.3
